Iso3,Country,Site ID,Site name,Borehole name,Automatic Borehole ID,Local Borehole ID,Latitude,Longitude,Elevation in meters above sea level,Status,Drilling date,Last editor,Date of update,Depth in m,Static water level in meters below ground level,Type of pump,Pump brand and model,Pump depth in m,Pump motor power in kilowatt,Energy source,Generator brand and model,Generator capacity in kilovolt-ampere (kVA),Casing diameter in inch,Casing material,1st screened area - from in m,1st screened area - to in m,2nd screened area - from in m,2nd screened area - to in m,3rd screened area - from in m,3rd screened area - to in m,Aquifer type,Driller's yield in m3/hr,Daily pumping time in h,Date of last water quality control,Conductivity in micro S/cm (microsiemen/cm),pH,Turbidity in NTU,Ammonia concentration in mg/L,Arsenic concentration in micro g/L,Fluoride concentration in mg/L,Nitrate concentration in mg/L,Nitrite concentration in mg/L,External link 1,External link 2,External link 3,External link 4,Attachment description,Comments
UGA,Uganda,UGAs990099,Rhino Camp,,UGA-UGAs990099-006,Unknown,3.04866,32.31188,651,active,15-4-2014,,,,,hand_pump,,,,,,,,,,,,,,,,0.8,8,25-11-2016,340,,,,,,,,,,,,,"BH located at the edge of the bottom land, road doesn't go any further south here, no outcrops"
NPL,Nepal,,Khudunabari,,NPL--001,Unknown,26.716469,87.958894,174,inactive,31-12-1991,,,60,,,,,,,,,,,,,,,,,,,,,,,,,,,,,,,,,,Camp closed
NPL,Nepal,,Khudunabari,,NPL--002,Unknown,26.711369,87.964536,172,inactive,31-12-1991,,,60,,,,,,,,,,,,,,,,,,,,,,,,,,,,,,,,,,Camp closed
NPL,Nepal,,Timai,,NPL--003,Unknown,26.74915,88.075328,286,inactive,31-12-1991,,,75,,,,,,,,,,,,,,,,,,,,,,,,,,,,,,,,,,Camp closed
NPL,Nepal,,Timai,,NPL--004,Unknown,26.748231,88.075433,283,inactive,31-12-1998,,,102,,,,,,,,,,,,,,,,,,,,,,,,,,,,,,,,,,Camp closed
NPL,Nepal,,Goldhap,,NPL--005,Unknown,26.615744,88.038294,115,inactive,31-12-1990,,,40,,,,,,,,,,,,,,,,,,,,,,,,,,,,,,,,,,Camp closed
NPL,Nepal,,Goldhap,,NPL--006,Unknown,26.616539,88.041289,118,inactive,31-12-1995,,,90,,,,,,,,,,,,,,,,,,,,,,,,,,,,,,,,,,Camp closed
NPL,Nepal,NPLs001252,Beldangi,,NPL-NPLs001252-001,Unknown,26.721547,87.685981,179,active,31-12-1991,,,60,,electrical_pump,,,11.2,generator,Kirlosker,30,,,,,,,,,,,,,,,,,,,,,,,,,,
NPL,Nepal,NPLs001252,Beldangi,,NPL-NPLs001252-002,Unknown,26.717583,87.685947,174,inactive,31-12-1990,,,65,,,,,,,,,,,,,,,,,,,,,,,,,,,,,,,,,,
NPL,Nepal,NPLs001252,Beldangi,,NPL-NPLs001252-003,Unknown,26.715622,87.69095,171,active,31-12-1997,,,80,,electrical_pump,,,11.2,generator,Kirlosker,30,,,,,,,,,,,,,,,,,,,,,,,,,,
NPL,Nepal,NPLs001252,Beldangi,,NPL-NPLs001252-004,Unknown,26.716164,87.681206,172,inactive,31-12-2007,,,60,,,,,,,,,,,,,,,,,,,,,,,,,,,,,,,,,,
NPL,Nepal,NPLs001252,Beldangi,,NPL-NPLs001252-005,Unknown,26.710003,87.696017,172,active,31-12-1991,,,65,,electrical_pump,,,11.2,generator,Kirlosker,30,,,,,,,,,,,,,,,,,,,,,,,,,,
NPL,Nepal,NPLs001257,Sanischare,,NPL-NPLs001257-001,Unknown,26.658317,87.550514,150,active,31-12-1991,,,65,,electrical_pump,,,11.2,,,,,,,,,,,,,,,,,,,,,,,,,,,,,
NPL,Nepal,NPLs001257,Sanischare,,NPL-NPLs001257-002,Unknown,26.653017,87.553925,151,active,31-12-1992,,,65,,electrical_pump,,,11.2,,,,,,,,,,,,,,,,,,,,,,,,,,,,,
NPL,Nepal,NPLs001257,Sanischare,,NPL-NPLs001257-003,Unknown,26.654606,87.549156,140,inactive,31-12-1990,,,60,,,,,,,,,,,,,,,,,,,,,,,,,,,,,,,,,,
MOZ,Mozambique,MOZs002392,Maratane,,MOZ-MOZs002392-001,Unknown,-15.25676898,39.24986104,,,,,,,,,,,,,,,,,,,,,,,,,,,,,,,,,,,,,,,,
SSD,South Sudan,SSDs008776,Pamir,PBH-3,SSD-SSDs008776-001,Unknown,9.5416,30.2051,,,22-6-2014,,,70,,,,,,,,,6,pvc,,,,,,,,,,,,,,,,,,,,,,,,
TCD,Chad,TCDs002889,Bredjing, F6,TCD-TCDs002889-004,Unknown,13.47805556,21.70172222,802,inactive,,,,,,,,,,,,,,,,,,,,,,,,,,,,,,,,,,,,,,
CMR,Cameroon,CMRs004008,Borgop Site,F 3,CMR-CMRs004008-005,Unknown,6.92683333,14.81538889,1242,active,,,,,,hand_pump,India Mark II,,,,,,4.5,pvc,,,,,,,,,10,10/8/2015,,,,,,,,,,,,,,UNHCR
KEN,Kenya,,Banane,Biamadhow,KEN--006,Unknown,0.61713889,40.41516667,120,active,,,,,,,,,,,,,,,,,,,,,,,,,,,,,,,,,,,,,,
SSD,South Sudan,SSDs004118,Yida,005-BH-MS,SSD-SSDs004118-008,Unknown,10.1059,30.08367,,active,1/12/2014,,,58,,electrical_pump,Grundfos SQ5 70,48.5,,generator,Hospital ,33,4,pvc,49.5,55.2,,,,,,4.877,10.47,,,,,,,,,,,,,,,
ETH,Ethiopia,,Jerer Valley,NBH2,ETH--011,Unknown,9,43,1465,active,1/1/2000,,,208,89,electrical_pump,SP17-15,185,15,,,,8,,,,,,,,,,,,,,,,,,,,,,,,,Connected to the system
KEN,Kenya,,Habaswein,Habaswein,KEN--017,Unknown,1.01411111,39.49044444,210,active,,,,,,,,,,,,,,,,,,,,,,,,,,,,,,,,,,,,,,
KEN,Kenya,,Hadado,Hadado,KEN--018,Unknown,1.53758333,39.43352778,270,active,,,,,,,,,,,,,,,,,,,,,,,,,,,,,,,,,,,,,,
UGA,Uganda,UGAs990142,Kyangwali,Kuga,UGA-UGAs990142-060,Unknown,1.16657,30.75756,1149,active,,,,,,hand_pump,,,,,,,,,,,,,,,,1.27,,,,,,,,,,,,,,,,Functional 
KEN,Kenya,KENs003583,Liboi,Liboi,KEN-KENs003583-001,Unknown,0.35516667,40.87247222,90,active,,,,,,,,,,,,,,,,,,,,,,,,,,,,,,,,,,,,,,
KEN,Kenya,,Abakoley,Abakoley,KEN--002,Unknown,0.63008333,39.70819444,,active,,,,,,,,,,,,,,,,,,,,,,,,,,,,,,,,,,,,,,
UGA,Uganda,UGAs004630,Nyumanzi,Nyimanzi I 3/10,UGA-UGAs004630-002,Unknown,3.47002778,31.93355556,630,active,13-4-2014,,,63,15.1,,,,,,,,,,,,,,,,,3.1,,,,,,,,,,,,,,,,
TCD,Chad,TCDs002891,Iridimi,IRIDF006,TCD-TCDs002891-003,Unknown,15.19869444,22.20236111,,,,,,65,18.45,hand_pump,Vergnet HPV60,,,,,,,,,,,,,,fractured_rock,1.8,10,,,,,,,,,,,,,,,
MWI,Malawi,MWIs002625,Luwani,Sealed BH 1,MWI-MWIs002625-005,Unknown,-15.48434444,34.74390556,,inactive,,,,,,,,,,,,,,,,,,,,,,,,,,,,,,,,,,,,,,
TCD,Chad,TCDs003104,Dosseye,F16,TCD-TCDs003104-007,Unknown,8.16305556,16.48472222,,active,,,,,,hand_pump,Vergnet HPV60,,,,,,5,pvc,,,,,,,porous,,,,,,,,,,,,,,,,,
KEN,Kenya,,Deru,Dertu,KEN--010,Unknown,0.27797222,39.80169444,150,active,,,,,,,,,,,,,,,,,,,,,,,,,,,,,,,,,,,,,,
KEN,Kenya,,Garse Kofte,Garse Kofte,KEN--014,Unknown,1.81447222,39.15811111,300,active,,,,,,,,,,,,,,,,,,,,,,,,,,,,,,,,,,,,,,
UGA,Uganda,UGAs001945,Nakivale,,UGA-UGAs001945-026,Unknown,0.81633333,30.88744444,1254,active,1/1/2010,,,10,,,,,,,,,,,,,,,,,porous,0.54,12,,,,,,,,,,,,,,,F
UGA,Uganda,,Mukondo C,Spring,UGA--035,Unknown,0.35347222,31.09538889,,active,,,,,,,,,,,,,,,,,,,,,,,12,,,,,,,,,,,,,,,
UGA,Uganda,UGAs004630,Nyumanzi ,Deep borehole,UGA-UGAs004630-038,Unknown,3.46308333,31.95891667,,active,25-3-2014,,,,,hand_pump,U2,,,,,,5,pvc,,,,,,,,,,,,,,,,,,,,,,,,
UGA,Uganda,,Sweswe dam II,Shallow Well,UGA--048,Unknown,0.35041667,31.09988889,,active,1/1/2005,,,4,1.25,hand_pump,India mark II,3,,,,,33,,,,,,,,,1.4,12,20-7-2015,92,5.85,34,,,0.1,0.13,,,,,,,
UGA,Uganda,UGAs990142,Kyangwali,Malembo B,UGA-UGAs990142-100,Unknown,1.11725,30.70422222,958,active,,,,,,hand_pump,,,,,,,,,,,,,,,,,,,,,,,,,,,,,,,,Functional 
BFA,Burkina Faso,BFAs004224,Mentao,F Chateau  Mentao Centre,BFA-BFAs004224-001,Unknown,14.014151,-1.673236,306.646515,active,1/4/2012,,,63.8,35.11,electrical_pump,Grundfos SP8A10,50,1.5,generator,OLYMPIAN,12.5,,,,,,,,,,11,6,,,,,,,,,,,,,,,
BFA,Burkina Faso,BFAs004476,Goudebo,F3,BFA-BFAs004476-001,Unknown,14.153058,-0.064108,273.71,active,25-5-2013,,,79,20.99,electrical_pump,Grundfos SP8A10,50,1.5,generator,HAZ,15,6.5,pvc,27.7,36.7,65.5,77.1,,,fractured_rock,8,8,6/6/2013,697,6.84,1.72,0.01,,0.25,0.44,0.003,,,,,,SE11 = F3
BFA,Burkina Faso,BFAs004477,Saag-nioniogo,Forage (avec pompe immergee',BFA-BFAs004477-001,Unknown,12.539339,-1.457793,301.197,active,15-2-2013,,,68,,electrical_pump,,42,,,,,,,,,,,,,,8,,,,,,,,,,,,,,,,
CAF,Central African Republic,CAFs004579,Zemio,PE D2,CAF-CAFs004579-001,Unknown,5.01513889,25.11575,563,active,,,,9.6,6.51,hand_pump,India II,,,,,,3,,,,,,,,,1.7,20,,,,2.5,,,,0.975,0.02,,,,,,
KEN,Kenya,,Abakailey ,Abakailey,KEN--001,Unknown,0.07838889,40.09625,180,active,,,,,,,,,,,,,,,,,,,,,,,,,,,,,,,,,,,,,,
CMR,Cameroon,CMRs004007,Mbile,F2-4,CMR-CMRs004007-001,Unknown,4.32422222,14.83394444,649,active,1/12/2014,,,40,5.85,hand_pump,India Mark II,18,,,N/A,,4.5,pvc,23,32,,,,,,4,10,27-3-2015,22.9,4.86,,,,,0.2,,Borehole Log,Pumping test,Quality test,-,,Forage UNHCR
CMR,Cameroon,CMRs004008,Borgop Site,F 1,CMR-CMRs004008-001,Unknown,6.92252778,14.81025,1283,active,,,,,,hand_pump,India Mark II,,,,,,4.5,pvc,,,,,,,,,10,10/8/2015,,,,,,,,,,,,,,UNHCR
CMR,Cameroon,CMRs004024,Timangolo,F9,CMR-CMRs004024-001,Unknown,4.63131,14.54411889,710,active,14-12-2014,,,32,12.1,hand_pump,India Mark II,24,,,N/A,,4.5,pvc,20.2,31,,,,,,0.7,10,26-12-2014,27.7,5.08,,,,,,,Borehole Log,Pumping test,Quality test,-,,Forage UNHCR
CMR,Cameroon,CMRs004028,Gado ,F17-G1,CMR-CMRs004028-001,Unknown,5.75178,14.43296,987,active,11/11/2014,,,46,,,,,,,,,4.5,pvc,,,,,,,,,10,17-11-2015,,,,,,,,,,,,,,UNICEF
CMR,Cameroon,CMRs004589,Minawao,F14,CMR-CMRs004589-001,Unknown,10.536,13.85445,585,active,13-3-2015,,,46,8.88,electrical_pump,DELION,,4.04,generator,,,5,pvc,38.1,44.1,,,,,fractured_rock,2.55,8,11/4/2015,100,7.16,,,,,,,,,,,,Forage UNHCR
CMR,Cameroon,CMRs005228,Ngam Site,F 6,CMR-CMRs005228-001,Unknown,6.73152778,14.56866667,,active,,,,,,hand_pump,India Mark II,,,,,,4.5,pvc,,,,,,,,,10,10/12/2015,,,,,,,,,,,,,,UNICEF
CMR,Cameroon,CMRs005229,Lolo,F6,CMR-CMRs005229-001,Unknown,4.27832,14.90588,625,active,28-8-2014,,,81,7.2,hand_pump,India Mark II,,,,N/A,,4.5,pvc,72,78,,,,,,1.6,10,2/9/2014,224,7.21,3.3,,,,,,Borehole Log,Pumping test,Quality test,-,,Forage UNHCR
CMR,Cameroon,CMRs008564,Ngarisongo,F3,CMR-CMRs008564-001,Unknown,3.55263889,15.05753889,574,active,25-7-2015,,,48,27,hand_pump,India Mark II,36,,,N/A,,4.5,pvc,29.3,42.1,,,,,,0.7,10,8/2/2016,253,5.26,,,,,0.2,0.005,Borehole Log,Pumping test,Quality test,-,,Forage UNHCR
CMR,Cameroon,,Adamoua,Batoua Godele (Sanguere) F1,CMR--001,Unknown,6.311471,14.71734662,1094,active,23-11-2011,,,45,10.84,hand_pump,,21,,,,,5,pvc,17.4,29.2,35.1,41,,,fractured_rock,4,10,,,,,,,,,,,,,,,
COD,Democratic Republic of Congo,CODs002391,Mole,F4,COD-CODs002391-001,Unknown,4.13605556,18.79341667,403,active,4/2/2015,,,40.45,14,hand_pump,Hydro_Vergnet,33,,,,,4,pvc,,,,,,,fractured_rock,1.4,10,,,4.55,,,,,,,,,,,,
COD,Democratic Republic of Congo,CODs005128,Inke,F5,COD-CODs005128-001,Unknown,4.08541667,20.76586111,413,active,8/10/2013,,,60,6,hand_pump,INDIA Mark II,,,,,,5,pvc,57.15,68.55,,,,,fractured_rock,4.08,10,,,,,,,,,,,,,,,
COD,Democratic Republic of Congo,CODs005223,Boyabu,F7,COD-CODs005223-001,Unknown,3.734,18.76177778,376,active,16-4-2015,,,49.2,8.22,hand_pump,INDIA Mark II,,,,,,5,pvc,,,,,,,porous,3.1,10,28-8-2014,35.2,5.4,1.5,,,,,,,,,,,
COG,Republic of the Congo,COGs031855,Ikpembele,Puits Kimbanguiste,COG-COGs002916-001,Unknown,3.179833,18.621528,338,active,28-6-2016,,,6.18,3.92,hand_pump,India Mark III,5.48,,,,,,,,,,,,,,,,23-1-2018,70,4.5,5,,,,,,,,,,,Open well of 1 meter diameter equipped with hand pump
DZA,Algeria,DZAs000020,Dakhla,OBL-03,DZA-DZAs000020-001,Unknown,26.81963333,-6.85996111,330,inactive,1/1/2010,,,70,,,,,,,,,9.5,steel,,,,,,,porous,,,5/3/2015,,,5,,,,,,,,,,,
DZA,Algeria,DZAs000021,Layoune,GL-07,DZA-DZAs000021-001,Unknown,27.77384167,-7.98714444,374,active,1/10/2011,,,75,8.4,,,,,,,,9.5,steel,,,,,,,porous,,,5/3/2015,,,5,,,,,,,,,,,
DZA,Algeria,DZAs000023,Smara,SA-11,DZA-DZAs000023-001,Unknown,27.46651944,-7.97434167,426,active,1/1/2006,,,100,18,electrical_pump,submersible pump (Hidráulica Alsina ST 36-12),72,11,grid,/,,9.5,steel,2.3,,,,,,porous,31.44,21,5/3/2015,3644,7.9,5,0.03,5,1.83,132,0.34,,,,,,
ERI,Eritrea,ERIs002007,Umkulu,Borehole ID#4,ERI-ERIs002007-001,Unknown,15.60171,39.37505969,56,inactive,5/8/2013,,,48,,,,,,,,,,,,,,,,,,,,,,,,,,,,,,,,,,
ETH,Ethiopia,ETHs000162,PUGNIDO 1,BoreHole 1 (BH01),ETH-ETHs000162-001,Unknown,7.680098,34.22000363,452,active,27-1-2013,,,110,24.3,electrical_pump,Submersible,45,,generator,Perkins,60,6,pvc,,,,,,,,43.16,4.57,,,,,,,,,,,,,,,
ETH,Ethiopia,ETHs000167,Sherkole ,Kubrihamsa BH#1,ETH-ETHs000167-001,Unknown,10.384672,34.59689438,1243,active,6/6/2006,,,98,3,electrical_pump,STAC/S4/38,74,18.5,generator,Perkins/DEUTZ,60,6,pvc,11,45.8,,,,,fractured_rock,9.72,4,,,,,,,,,,,,,,,
CMR,Cameroon,CMRs004008,Borgop Site,F 13,CMR-CMRs004008-002,Unknown,6.92627778,14.81319444,1258,active,,,,,,hand_pump,India Mark II,,,,,,4.5,pvc,,,,,,,,,10,10/9/2015,,,,,,,,,,,,,,UNHCR
ETH,Ethiopia,ETHs003014,Shimelba,BH#3,ETH-ETHs003014-001,Unknown,14.194463,37.70252786,989,active,,,,57,10,electrical_pump,STAC/VS19-45,42,22,generator,,,6,steel,,,,,,,fractured_rock,28.8,8,,,,,,,,,,,,,,,
ETH,Ethiopia,ETHs003858,Mai-Aini,BH#5,ETH-ETHs003858-001,Unknown,13.611968,38.14242103,1283,active,23-3-2011,,,138.5,13,electrical_pump,STAC/S4-4,105,7.5,generator,,,6,steel,,,,,,,fractured_rock,5.4,3,,,,,,,,,,,,,,,
ETH,Ethiopia,ETHs004073,Adiharush,BH#2,ETH-ETHs004073-001,Unknown,13.606878,38.12690085,1312,active,23-11-2011,,,109.4,4.12,electrical_pump,Dynatech/DT8-42K,84,7.5,generator,,,5.7,pvc,,,,,,,fractured_rock,7.92,9,,,,,,,,,,,,,,,
ETH,Ethiopia,ETHs004111,Tongo,Tongo BH2,ETH-ETHs004111-001,Unknown,9.36129444,34.44263333,1695,active,24-8-2012,,,88,,electrical_pump,,53,30,generator,,100,6,pvc,17,26,32,39,48,54,fractured_rock,504,11,,,,,,,,,,,,,,,
ETH,Ethiopia,ETHs004591,Bambasi,Bambasi Borehole#3,ETH-ETHs004591-001,Unknown,9.75931667,34.77353333,1350,active,29-1-2005,,,106,,electrical_pump,Submersible,83,22,generator,Perkins &Cummins,60,6,pvc,,,,,,,,14.4,10.5,,,,,,,,,,,,,,,
ETH,Ethiopia,ETHs004634,Hitsats,BH#3,ETH-ETHs004634-001,Unknown,14.11882,37.98509422,1060,active,1/6/2014,,,97,4.5,,NA,87,,generator,,,6,pvc,,,,,,,fractured_rock,5.4,8,,,,,,,,,,Zaatari-BH1-Well-completion report-2012.pdf,,,,,
ETH,Ethiopia,ETHs008604,Tsore  ,Tsore BH #1,ETH-ETHs008604-001,Unknown,10.23156,34.61540078,1517,inactive,15-7-2015,,,75.5,3.1,electrical_pump,,69,7.5,generator,,,6,pvc,15.3,40.95,,,,,fractured_rock,4.788,,,,,,,,,,,,,,,,
ETH,Ethiopia,,Itang(Tierkidi & Kule),It-BH6,ETH--001,Unknown,8.184146,34.26041966,433.7,inactive,25-7-2014,,,50,3.9,,,41,,,,,6,pvc,,,,,,,,43.2,,9/5/2014,123,6.18,0.365,0.16,,0.53,0.1,,,,,,,
GHA,Ghana,GHAs004584,Egyeikrom Camp,1,GHA-GHAs004584-001,Unknown,5.112,-1.4378,33,active,11/7/2011,Emmanual,22-5-2019,65,15,electrical_pump,Pedrollo 4SR,64,2.5,grid_generator,N/A,,8,pvc,,,,,,,,7,3,11/7/2011,1923,5.81,11,,,0.181,0.03,0.085,,,,,,There is only one mechanised borehole in the camp. Water quality tests on the five borehole were done far back in 2011 during the time of drilling. in view of this the boreholes ID in relation to their analysis result are correct but not sure whether the 
MWI,Malawi,,Kapise,BH 1,MWI--001,Unknown,-15.47788889,34.43081389,,active,,,,,,,,,,,,,,,,,,,,,,,,,,,,,,,,,,,,,,
GHA,Ghana,GHAs004585,Fetentaa Camp,UN/NCS-001-07-2011,GHA-GHAs004585-001,Unknown,7.47861667,-2.68305,364,active,28-6-2011,Emmanual,22-5-2019,60,41,electrical_pump,Pedrollo 4SR,57,1.5,solar_generator,Astra Korea,3,5,pvc,,,,,,,,3.3,6,12/7/2011,100,6.84,1.5,0.2,,1.1,2,0.1,Drilling Report,Water Analysis Report,,,,
JOR,Jordan,JORs004465,Zaatari,BH1,JOR-JORs004465-001,Unknown,32.28704,36.32804,658,active,7/11/2012,,,430,219,electrical_pump,,348,,,,,10.75,steel,280,430,,,,,fractured_rock,43,24,,,,,,,,,,Zaatari-BH1-Well-completion report-2012.pdf,,,,,
JOR,Jordan,JORs004576,Azraq Camp,BH1,JOR-JORs004576-001,Unknown,31.90921,36.57595,621,inactive,14-8-2013,,,500,118,,,,,,,,10.75,steel,182,380,,,,,fractured_rock,105,,,3900,,,,,,,,Azraq-BH1-well_completion_report-2013,,,,,
KEN,Kenya,KENs001088,Dagahaley,DAG BH 4,KEN-KENs001088-001,Unknown,0.19055556,40.27736111,127,active,26-10-2009,,,171,112.98,electrical_pump,Grundfos SP30-21,146.2,18.5,generator,,,7.87,pvc,78,145,,,,,porous,36,12,,706,7.31,2.5,,,0.75,0.1,0.02,,,,,,
KEN,Kenya,KENs001089,Hagadera,4,KEN-KENs001089-001,Unknown,0.00291667,40.35736111,130,active,,,,180,116.95,electrical_pump,Grundfos SP60-19,,37,generator,,,7.87,pvc,,,,,,,porous,52,7.2,,,,2.5,,,,,,,,,,,
KEN,Kenya,KENs001091,IFO,2,KEN-KENs001091-001,Unknown,0.11805556,40.30638889,123,active,13-10-2010,,,160,110,electrical_pump,Grundfos SP46-20,140,30,grid_generator,,,7.87,pvc,96,124,,,,,porous,50,12,,927,7.47,2.5,,,0.89,1.6,0.01,,,,,,
KEN,Kenya,KENs001093,Kakuma,KKM 4 - VES 8,KEN-KENs001093-001,Unknown,3.73275,34.82013333,593,active,1/1/2014,,,121,18.3,electrical_pump,,,,,,,8,,,,,,,,,8.7,,,,,,,,,,,,,,,,n/a-SALINE
KEN,Kenya,KENs004592,Kambioos,2,KEN-KENs004592-001,Unknown,-0.05372222,40.39326667,138,active,1/1/2012,,,,,electrical_pump,Grundfos SP60-19,,37,generator,,,7.87,pvc,,,,,,,porous,55,,,,,2.5,,,,,,,,,,,
KEN,Kenya,KENs009177,IFO 2,1,KEN-KENs009177-001,Unknown,0.14795,40.3,125,active,1/1/2011,,,180,110.8,electrical_pump,Grundfos SP60-19,,37,grid_generator,,,7.87,pvc,,,,,,,porous,42,8,,,,2.5,,,,,,,,,,,
KEN,Kenya,KENs990203,Daadab ,Daadab,KEN-KENs990203-001,Unknown,0.05761111,40.30802778,120,active,,,,,,,,,,,,,,,,,,,,,,,,,,,,,,,,,,,,,,
LBN,Lebanon,LBNs004382,Bani Sakher,Bani Sakher,LBN-LBNs004382-001,Unknown,34.66395,36.3095,,active,10/1/2013,,,172,120,electrical_pump,Rovatti 6ERCX3/23,11,11,generator,,,,,,,,,,,,20,,,,,,,,,,,,,,,,
LBN,Lebanon,LBNs004395,Kfartoun-Akhroum,Kfartoun-Akhroum,LBN-LBNs004395-001,Unknown,34.54891667,36.33771667,,active,11/1/2014,,,402,350,electrical_pump,Caprari  50HP,385,37,generator,,,,,,,,,,,,16,,,,,,,,,,,,,,,,
LBN,Lebanon,LBNs004407,Machta Hassan,Machta Hassan,LBN-LBNs004407-001,Unknown,34.62816667,36.3183,,active,8/1/2014,,,325,212,electrical_pump,Caprari  E6X1340-6/4,,,generator,,,,,,,,,,,,22.5,,,,,,,,,,,,,,,,
LBN,Lebanon,LBNs005465,Bsatine,Bsatine,LBN-LBNs005465-001,Unknown,34.57688333,36.3545,,active,20-11-2013,,,400,60,electrical_pump,Grundfos sp17-30,15.5,18.5,generator,,,,,,,,,,,,20,,,,,,,,,,,,,,,,
LBN,Lebanon,LBNs006576,Tal Abbas,Tal Abbas,LBN-LBNs006576-001,Unknown,34.57995,36.0727,,active,1/10/2015,,,109,20,electrical_pump,Caprari  50HP,80,37,generator,,,,,,,,,,,,17,,,,,,,,,,,,,,,,
LBN,Lebanon,,Mohamra,Mohamra,LBN--001,Unknown,34.50366667,35.96818333,,active,12/5/2013,,,141,124,electrical_pump,Caprari E4XP40/30 – MCH455,4,4.1,generator,,,,,,,,,,,,7,,,,,,,,,,,,,,,,
MLI,Mali,MLIs001121,Gao - Amassaracade,,MLI-MLIs001121-001,Unknown,16.21716667,-0.28947222,,active,15-10-2015,,,95,,,,,,,N/A,,5,pvc,,,,,,,fractured_rock,,,,,,,,,,,,,,,,,Construction UNHCR(Forage negatif)
MLI,Mali,MLIs001123,Kayes - Dindinaye/Ergui,,MLI-MLIs001123-001,Unknown,16.75286111,-3.39888889,,active,12/7/2013,,,100,12,hand_pump,PMH India,45,,,N/A,,5,pvc,68.16,97.46,,,,,fractured_rock,1,6,12/2/2013,431,7.46,,,,,,,,,,,,Construction UNHCR
MLI,Mali,,Mopti - Banketaba/Ecole,,MLI--001,Unknown,14.52127778,-4.91897222,,active,31-10-2014,,,45,9.37,hand_pump,PMH India,,,,N/A,,5,pvc,32.74,41.5,,,,,fractured_rock,3.6,5,31-10-2014,,,,,,,,,,,,,,Construction UNHCR
MWI,Malawi,MWIs002625,Luwani,Sealed BH 6,MWI-MWIs002625-001,Unknown,-15.48232778,34.74245556,,inactive,,,,,,,,,,,,,,,,,,,,,,,,,,,,,,,,,,,,,,
NAM,Namibia,NAMs001250,Osire ,ORC 11,NAM-NAMs001250-001,Unknown,-21.06895,17.36133333,,active,2/1/2000,,,43,13.7,electrical_pump,SQF 2.5.2,,0.3,generator,,,,pvc,,,,,,,,2.12,,,,,,,,,,,,,,,,
NER,Niger,NERs001259,Abala,QRC1,NER-NERs001259-001,Unknown,14.90133333,3.42122222,238,active,1/1/2013,,,207,,electrical_pump,"Grundfos, SQFlex",,1.5,solar,,,5,pvc,,,,,,,porous,5,5,4/4/2013,,7.34,,,,1.74,4.9,0.03,,,,,,Screen Type: PVC.
NER,Niger,NERs004228,Mangaize,QRC3,NER-NERs004228-001,Unknown,14.67666667,1.954879,242,active,12/2/2012,,,51.8,13,electrical_pump,"Grundfos, SQFlex",,1.5,solar,,,5,pvc,30.74,48.35,,,,,porous,5.5,5,12/4/2012,,6.6,,,,0.45,4.4,0.006,,,,,,Screen Type: PVC. Screen length: 17.61m.
NER,Niger,NERs004466,Tabareybarey,ADRA01,NER-NERs004466-001,Unknown,14.77502778,0.95558333,252,inactive,1/1/2012,,,,,hand_pump,Vergnet PHV60 ,,,,,,4,pvc,,,,,,,fractured_rock,0.4,24,,,,,,,,,,,,,,,Screen Type: PVC
NER,Niger,NERs009368,Kablewa,KABLEWA,NER-NERs009368-001,Unknown,13.98047222,12.98069444,277,active,1/1/1963,,,,,electrical_pump,"Grundfos, SP30A12",10,11,,,,,steel,,,,,,,porous,,8,,,,,,,,,,,,,,,Screen Type: PVC
NER,Niger,NERs009369,Sayam-Forage,WVN,NER-NERs009369-001,Unknown,13.63216667,12.50688889,,inactive,6/10/2015,,,70,38.8,electrical_pump,"Grundfos, SP30A08",66.6,7.5,generator,,,8,pvc,40,64,,,,,porous,16.2,4,22-6-2015,,7.34,,,,0.14,5.34,0.07,,,,,,Non operationnel. Screen Type: PVC. Screen length: 24m.
NER,Niger,NERs009387,Goudoumaria,UNHCR-DRH/A,NER-NERs009387-001,Unknown,13.74577778,11.18958333,337,active,9/3/2015,,,63,5.81,electrical_pump,"Grundfos, SP30A08",61,7.5,generator,,,8,pvc,,,,,,,porous,7.5,5,,,,,,,,,,,,,,,Screen Type: PVC.
NER,Niger,,Bibibyergou,PLAN02(hors camp),NER--001,Unknown,14.43440278,1.22030556,,inactive,1/1/2013,,,70,,hand_pump,Vergnet PHV60 ,,,,,,4,pvc,,,,,,,fractured_rock,0.4,24,,,,,,,,,,,,,,,Non operationnel. Screen Type: PVC.
RWA,Rwanda,RWAs002999,Nyabiheke Camp,BH#1,RWA-RWAs002999-001,Unknown,-1.59873667,30.25656889,1505,active,27-6-2005,,,80,150,electrical_pump,Grundfos,60,5.5,generator,LISTER-PETTER,63,7.87,pvc,80,81.5,,,,,fractured_rock,6.8,20,,,6.8,,,,,,,,,,,,
ETH,Ethiopia,ETHs004111,Tongo,Tongo BH1,ETH-ETHs004111-002,Unknown,9.36008889,34.44033611,1693,active,,,,97,,electrical_pump,,,25,generator,,75,6,pvc,,,,,,,,504,17,,,,,,,,,,,,,,,
SSD,South Sudan,SSDs004118,Yida,011-BH-B10,SSD-SSDs004118-001,Unknown,10.1036,30.06735,418,active,15-10-2015,,,78,,electrical_pump,Grundfos SQ5 70,51,1.81,generator,"OLYMPIAN PERKIN ENGINE, ",18,4,pvc,66,75,,,,,,6,8.5,,,,,,,,,,,,,,,
UGA,Uganda,UGAs001954,Baratku,,UGA-UGAs001954-002,Unknown,3.47669444,31.8865,,active,10/2/2014,,,67,19.37,,,54,,,,,,,,,,,,,,,,,,,,,,,,,,,,,,
SSD,South Sudan,SSDs004119,Doro,Baldugu,SSD-SSDs004119-001,Unknown,9.97444,33.73634,,active,,,,22,14,electrical_pump,Grundfos SQ 5-70,,1.85,generator,,,4,pvc,,,,,,,fractured_rock,6,12,,,,2.5,,,,,,,,,,,
SSD,South Sudan,SSDs004461,Yusif Batil,BH26,SSD-SSDs004461-001,Unknown,9.96271,33.5715,,active,4/7/2015,,,,35,electrical_pump,Grundfos SQ5 - 70,,3.5,grid_generator,,,4,pvc,,,,,,,fractured_rock,4.6,12,,,,2.5,,,,,,,,,,,
SSD,South Sudan,SSDs004467,Gendrassa,BH5,SSD-SSDs004467-001,Unknown,9.98255556,33.59811111,,active,,,,,20,electrical_pump,Grundfos,,4,generator,,,4,pvc,,,,,,,fractured_rock,9,10,,,,2.5,,,,,,,,,,,
SSD,South Sudan,SSDs005225,Ajuong Thok ,Borehole 4,SSD-SSDs005225-001,Unknown,9.96127778,30.26886111,431,active,13-10-2013,,,80,58,electrical_pump,SP14-16,60,5.5,generator,,,5,pvc,,,,,,,,18,,27-9-2013,,,,,,,,,,,,,,
SSD,South Sudan,SSDs005226,Kaya,BH site4,SSD-SSDs005226-001,Unknown,10.07744444,33.53341667,429,active,1/3/2013,,,80,54.8,electrical_pump,Grundfos SP14A-18,75,5.5,grid_generator,,,5,pvc,,,,,,,fractured_rock,12,12,,,,2.5,,,,,,,,,,,
TCD,Chad,TCDs002650,Kounougou,P2,TCD-TCDs002650-001,Unknown,14.4575,21.92972222,,,,,,7.39,4.16,electrical_pump,Grundfos SP5A-215,,4,generator,Perkins / 27,,,,,,,,,,fractured_rock,15,12,,,,,,,,,,,,,,,
TCD,Chad,TCDs002655,Farchana,F8,TCD-TCDs002655-001,Unknown,13.59831944,21.78811111,831,inactive,25-11-2009,,,84,9.1,,,,,,,,5,pvc,,,,,,,fractured_rock,0.612,,,,,2.5,,,,,,,,,,,
NER,Niger,NERs009369,Sayam-Forage,UNHCR-DRH/A,NER-NERs009369-002,Unknown,13.62319444,12.50513889,313,active,,,,11,2.78,electrical_pump,"Grundfos, 40 SQF-5, centrifugal pump",6,1.4,solar_generator,,,,steel,,,,,,,porous,8.18,10,,,,,,,,,,,,,,,Screen Type: Steel.
TCD,Chad,TCDs002889,Bredjing,F2,TCD-TCDs002889-001,Unknown,13.47752778,21.68552778,716,active,16-6-2004,,,12,3.5,electrical_pump,GRUNDFOS SP8A-18,,7.5,generator,Olympia,60,6,pvc,,,,,,,porous,12,14,28-1-2016,100,6.7,2.5,,,,,,,,,,,
TCD,Chad,TCDs002890,Milé,MIL F001,TCD-TCDs002890-001,Unknown,14.98980556,22.537,,,20-4-2010,,,70,14.77,hand_pump,Vergnet HPV60,,,,,,,,,,,,,,fractured_rock,0.8,10,,,,,,,,,,,,,,,
TCD,Chad,TCDs002891,Iridimi,IRID F012,TCD-TCDs002891-001,Unknown,15.19869444,22.2,,,,,,65,17.35,hand_pump,Vergnet HPV60,,,,,,,,,,,,,,fractured_rock,2.2,10,,,,,,,,,,,,,,,
TCD,Chad,TCDs002894,Ourecassoni,OUREF006,TCD-TCDs002894-001,Unknown,16.15627778,23.12941667,731,,27-5-2010,,,46,11.98,hand_pump,Vergnet HPV60,,,,,,,,,,,,,,fractured_rock,5,10,,,,,,,,,,,,,,,
TCD,Chad,TCDs002895,Amnaback,AMNA F002,TCD-TCDs002895-001,Unknown,15.33172222,22.55019444,,,,,,44,3.4,hand_pump,Vergnet HPV60,,,,,,,,,,,,,,fractured_rock,4.5,10,,,,,,,,,,,,,,,
TCD,Chad,TCDs002988,Gaga,F3,TCD-TCDs002988-001,Unknown,13.78622222,21.45705556,716,inactive,19-4-2005,,,19,7.14,,,,,generator,Olympia,60,6,pvc,,,,,,,porous,2,,14-1-2016,100,6.4,2.5,,,,,,,,,,,
TCD,Chad,TCDs003104,Dosseye,F20,TCD-TCDs003104-001,Unknown,8.16055556,16.47861111,,active,,,,,,hand_pump,Vergnet HPV60,,,,,,5,pvc,,,,,,,porous,,,,,,,,,,,,,,,,,
TCD,Chad,TCDs004478,Belom,F10,TCD-TCDs004478-001,Unknown,8.20005,18.45124,411,active,26-1-2013,,,50,7.65,hand_pump,Vergnet HPV60,27,,,,,5,pvc,37,50,,,,,porous,3.4,,,,,,,,,,,,,,,,
TCD,Chad,TCDs007759,Doholo,F4,TCD-TCDs007759-001,Unknown,7.59197,16.3733,417,active,4/11/2014,,,47,14.1,hand_pump,Vergnet HPV60,20,,,,,5,pvc,37,47,,,,,porous,5.7,,,,,,,,,,,,,,,,
TCD,Chad,TCDs080005,Dar Es Salam,transit center 3,TCD-TCDs080005-001,Unknown,13.62502778,14.29738889,,active,,,,25,17.85,hand_pump,India Mark II,20,,,,,,,,,,,,,porous,1.23,13,,338,8.02,2.5,0.63,,,8.3,,,,,,,
UGA,Uganda,UGAs001848,Olua 1,Deep borehole,UGA-UGAs001848-001,Unknown,3.46533333,31.94294444,,active,4/3/2014,,,50.8,7.3,hand_pump,U2,24,,,,,5,pvc,,,,,,,fractured_rock,5.1,12,,561,6.94,0.1,,,0.06,0.04,,Salty water,,,,,
UGA,Uganda,UGAs001852,Maaji,Deep borehole,UGA-UGAs001852-001,Unknown,3.17694444,31.655,884,active,25-1-2015,,,50.5,1.5,hand_pump,U2,27,,,,,5,pvc,,,,,,,fractured_rock,1.3,12,2/5/2015,238,6.12,0.5,,,0.14,0.03,,,,,,,
UGA,Uganda,UGAs001892,Kakoni A,Borehole,UGA-UGAs001892-001,Unknown,0.34211111,31.05761111,,active,1/1/1989,,,40,2,hand_pump,India mark II,27,,,,,5,steel,,,,,,,,1.9,12,,,,,,,,,,,,,,,
UGA,Uganda,UGAs001893,Kakoni B,Spring,UGA-UGAs001893-001,Unknown,0.35955556,31.07238889,,active,1/1/2012,,,,,,,3,,,,,,,,,,,,,,,12,,,,,,,,,,,,,,,
UGA,Uganda,UGAs001933,Humura,Borehole,UGA-UGAs001933-001,Unknown,0.39316667,31.11852778,,active,1/1/1994,,,40,7,hand_pump,India mark II,,,,,,5,steel,,,,,,,,1.5,12,,,,,,,,,,,,,,,
UGA,Uganda,UGAs001940,Bukere A,Borehole,UGA-UGAs001940-001,Unknown,0.37933333,31.09366667,,active,,,,40,6,hand_pump,India mark II,36,,,,,5,steel,,,,,,,,2,12,,,,,,,,,,,,,,,
UGA,Uganda,UGAs001945,Nakivale,,UGA-UGAs001945-001,Unknown,0.85802778,30.85438889,1276,active,1/1/2009,,,70,42.24,,,,,,,,6,pvc,,,,,,,porous,0.5,12,,,6.44,13.8,,,0.25,,,,,,,,
UGA,Uganda,UGAs001954,Baratku,,UGA-UGAs001954-001,Unknown,3.47125,31.88425,,active,7/2/2014,,,76,,,,,,,,,,,,,,,,,,,,,,,,,,,,,,,,,,
UGA,Uganda,UGAs001958,Olua 2,Deep borehole,UGA-UGAs001958-001,Unknown,3.28580556,31.88763889,729,active,4/3/2014,,,50.45,6.56,hand_pump,U2,18,,,,,5,pvc,,,,,,,fractured_rock,6.8,12,,202,6.52,,,,0.09,0.04,,,,,,,
UGA,Uganda,UGAs002378,Kiryandongo settlement,OPM,UGA-UGAs002378-001,Unknown,1.94286111,32.1595,1111,active,,,,,26,electrical_pump,Tormac Model TS100-8-34,41.4,5.2,solar,Lister Perpere,18,6,pvc,,,,,,,fractured_rock,7.26,8,,492,6.74,2.5,,,,,,,,,,,under motorisation
UGA,Uganda,UGAs004630,Nyumanzi,Nyimanzi I 10/10,UGA-UGAs004630-001,Unknown,3.46552778,31.9335,634,active,9/3/2014,,,54,10.6,,,,,,,,,,,,,,,,,1.36,,,,,,,,,,,,,,,,
UGA,Uganda,UGAs004662,Ayilo ,Ayilo Ext 7,UGA-UGAs004662-001,Unknown,3.28930556,31.92780556,738,active,9/4/2014,,,51,,hand_pump,,21,,,,,,,,,,,,,,2,,,,,,,,,,,,,,,,
UGA,Uganda,UGAs990142,Kyangwali,Block 64,UGA-UGAs990142-001,Unknown,1.14816,30.75386,1152,active,,,,,,electrical_pump,Grundfos/Centrifugal,,3,generator,,12.5,,,,,,,,,,3.3,16,,,,,,,,,,,,,,,Functional 
UGA,Uganda,,Gaspa Road BH,Gaspa Road BH,UGA--001,Unknown,1.93577778,32.18025,1091,active,,,,,,hand_pump,U2,35.4,,,,,6,pvc,,,,,,,fractured_rock,16,12,,763,6.61,2.5,,,,,,,,,,,
BFA,Burkina Faso,BFAs004224,Mentao,F Chateau  Mentao Nord,BFA-BFAs004224-002,Unknown,14.036924,-1.672892,289.299652,active,7/7/2012,,,70,32,electrical_pump,Grundfos SP8A10,37,1.5,generator,SDMO,12,,,,,,,,,,10,6,,,,,,,,,,,,,,,
BFA,Burkina Faso,BFAs004476,Goudebo,F2,BFA-BFAs004476-002,Unknown,14.160056,-0.062683,267.61,active,25-5-2013,,,68.93,20.45,electrical_pump,Grundfos SP5A17,55,1.5,generator,SDMO,12,5,pvc,24,29.9,47.3,61.9,,,fractured_rock,5,6,6/6/2013,748,6.77,1.85,0.01,,0.16,1.32,0.003,,,,,,SE10 = F2
BFA,Burkina Faso,BFAs004477,Saag-nioniogo,PMH 3 (a cote' securite'),BFA-BFAs004477-002,Unknown,12.539181,-1.463188,,,,,,,,hand_pump,,,,,,,,,,,,,,,,,,,,,,,,,,,,,,,,
CAF,Central African Republic,CAFs004579,Zemio,PE D1,CAF-CAFs004579-002,Unknown,5.016,25.11819444,562,active,,,,10.15,6.02,hand_pump,India II,,,,,,3,,,,,,,,,1.8,20,,,,2.5,0.03,,,0.705,,,,,,,
CMR,Cameroon,CMRs004007,Mbile,F2-5,CMR-CMRs004007-002,Unknown,4.32708333,14.83469444,648,active,7/6/2014,,,60,9.64,hand_pump,India Mark II,,,,N/A,,4.5,pvc,35,49.6,,,,,,1,10,2/9/2014,77,5.58,6.1,,,,,,Borehole Log,Pumping test,Quality test,-,,Forage UNHCR
CMR,Cameroon,CMRs004024,Timangolo,F7,CMR-CMRs004024-002,Unknown,4.61607,14.54555,718,active,10/12/2014,,,35,14.98,hand_pump,India Mark II,24,,,N/A,,4.5,pvc,23.2,34,,,,,,1,10,14-12-2014,33.3,5.61,,,,,,,Borehole Log,Pumping test,Quality test,-,,Forage UNHCR
CMR,Cameroon,CMRs004028,Gado ,F15-G1,CMR-CMRs004028-002,Unknown,5.75277,14.43516,994,active,21-7-2014,,,45,,,,,,,,,4.5,pvc,,,,,,,,,10,17-11-2015,,,,,,,,,,,,,,UNICEF
CMR,Cameroon,CMRs004589,Minawao,F1H,CMR-CMRs004589-002,Unknown,10.56251667,13.85671667,607,active,4/7/2013,,,45,11.03,electrical_pump,DELION,27,5,generator,,,4,pvc,21,27,32,38,,,fractured_rock,3,8,,,,,,,,,,,,,,,Forage UNHCR
CMR,Cameroon,CMRs005228,Ngam Site,F 5,CMR-CMRs005228-002,Unknown,6.73047222,14.56869444,,active,,,,,,hand_pump,India Mark II,,,,,,4.5,pvc,,,,,,,,,10,10/12/2015,,,,,,,,,,,,,,HCR
CMR,Cameroon,CMRs005229,Lolo,F13,CMR-CMRs005229-002,Unknown,4.27836111,14.90588889,627,active,9/12/2014,,,41,8.64,hand_pump,India Mark II,,,,N/A,,4.5,pvc,29,,,,,,,1.32,10,2/9/2014,87.2,6.24,3.4,,,,,,,Pumping test,Quality test,-,,Forage UNHCR
CMR,Cameroon,CMRs008564,Ngarisongo,F2,CMR-CMRs008564-002,Unknown,3.55411111,15.05813889,572,active,9/3/2014,,,53,,hand_pump,India Mark II,,,,N/A,,4.5,pvc,36,44.7,,,,,,,,,,,,,,,,,Borehole Log,-,-,-,,Forage UNHCR
CMR,Cameroon,,Adamoua,Mbewe F1,CMR--002,Unknown,6.834539,14.78882198,1261,active,30-12-2008,,,45,11.07,hand_pump,,24,,,,,5,pvc,30.7,42.5,,,,,fractured_rock,4.5,10,,,,,,,,,,,,,,,
COD,Democratic Republic of Congo,CODs002391,Mole,F12,COD-CODs002391-002,Unknown,4.13630556,18.79711111,394,active,7/4/2015,,,41.95,5,hand_pump,Hydro_Vergnet,21,,,,,5,pvc,,,,,,,fractured_rock,1.1,10,27-3-2015,23.9,5.48,2.5,,,,,,,,,,,
COD,Democratic Republic of Congo,CODs005128,Inke,F1,COD-CODs005128-002,Unknown,4.09105556,20.76658333,411,active,20-6-2013,,,56,6,hand_pump,INDIA Mark II,,,,,,5,pvc,53.77,65.17,,,,,fractured_rock,1.2,10,9/10/2014,,,,,,,,,,,,,,
COD,Democratic Republic of Congo,CODs005223,Boyabu,F12,COD-CODs005223-002,Unknown,3.73586111,18.76208333,383,active,14-8-2014,,,42,7.67,hand_pump,INDIA Mark II,,,,,,5,pvc,,,,,,,porous,2.5,10,10/12/2014,33.6,5.5,0.3,,,,,,,,,,,
DZA,Algeria,DZAs000020,Dakhla,OBL-02,DZA-DZAs000020-002,Unknown,26.82881389,-6.86277778,331,active,1/1/2002,,,68,0.17,electrical_pump,submersible pump (GRUNDFOS SP 46-7),65,11,grid,PERKINS,80,9.5,steel,,,,,,,porous,43.81,10,,1414,7.35,5,0.17,,0.51,8.2,0.34,,,,,,
DZA,Algeria,DZAs000021,Layoune,GL-04,DZA-DZAs000021-002,Unknown,27.73184722,-8.06730833,393.9,active,1/1/2010,,,80,,,,,,,,,9.5,steel,,,,,,,porous,,,5/3/2015,,,5,,,,,,,,,,,
DZA,Algeria,DZAs000023,Smara,SA-10,DZA-DZAs000023-002,Unknown,27.46188889,-7.98370556,424,active,1/1/2003,,,86,24,electrical_pump,submersible pump (Ideal 10/130),70,9.2,grid,PERKINS,150,9.5,steel,2.3,,,,,,porous,36.5,18,5/3/2015,3811,7.3,5,0.28,,1.26,139,0.34,,,,,,The same generator is also used for the Osmosis station whenever there is a break of the power grid
ERI,Eritrea,ERIs002007,Umkulu,Borehole ID#2,ERI-ERIs002007-002,Unknown,15.587888,39.39007048,59,inactive,22-7-2013,,,27,2.2,,,,,,,,,,,,,,,,,3.6,,,,6.9,2,,,,,,,,,,,
ETH,Ethiopia,ETHs000162,PUGNIDO 1,BoreHole(BH02),ETH-ETHs000162-002,Unknown,7.669401,34.23201186,451,active,1/11/2013,,,119.5,20.18,electrical_pump,Submersible,74,,generator,Perkins,60,6,pvc,,,,,,,,43.16,9.03,,,,,,,,,,,,,,,
ETH,Ethiopia,ETHs000167,Sherkole ,Homosha BH #1,ETH-ETHs000167-002,Unknown,10.308608,34.62982443,1372,active,1/7/2012,,,99,6.86,electrical_pump,STAC/S4-4,76,15,generator,,60,6,pvc,17.1,52.2,,,,,fractured_rock,16.92,12,,,,,,,,,,,,,,,
ETH,Ethiopia,ETHs003014,Shimelba,BH#1,ETH-ETHs003014-002,Unknown,14.156753,37.71495254,1039,active,,,,60,16,electrical_pump,STAC/S2-31,49,4,generator,,,6,steel,,,,,,,fractured_rock,8.64,4,,,,,,,,,,,,,,,
ETH,Ethiopia,ETHs003858,Mai-Aini,BH#7,ETH-ETHs003858-002,Unknown,13.617692,38.1506461,1327,active,23-3-2011,,,109,15.69,electrical_pump,CAPARARI/E6X40/33,95,18.5,generator,,,6,steel,,,,,,,fractured_rock,7.2,14,,,,,,,,,,,,,,,
ETH,Ethiopia,ETHs004073,Adiharush,BH#1,ETH-ETHs004073-002,Unknown,13.610811,38.12708055,1280,active,17-10-2010,,,96,3.78,electrical_pump,Dynatech/DT8-42K,86,7.5,generator,,,6,pvc,,,,,,,fractured_rock,7.92,9,,,,,,,,,,,,,,,
ETH,Ethiopia,ETHs004591,Bambasi,Bambasi Borehole#1,ETH-ETHs004591-002,Unknown,9.76955,34.77681667,1358,active,10/6/2012,,,104,2.14,electrical_pump,Submersible,76.3,18.5,generator,JCB &JCB,108,6,pvc,,,,,,,,23.04,10.5,,,,,,,,,,,,,,,
ETH,Ethiopia,ETHs004634,Hitsats,BH#2,ETH-ETHs004634-002,Unknown,14.119798,38.07304861,1065,active,27-5-2014,,,82,7.1,,NA,74,,generator,,,6,pvc,,,,,,,fractured_rock,14.4,8,,,,,,,,,,,,,,,
ETH,Ethiopia,ETHs008604,Tsore  ,Tsore BH #3,ETH-ETHs008604-002,Unknown,10.236644,34.61675915,1525,active,15-9-2015,,,100,3.17,electrical_pump,STAC VS25/23,45,22,generator,Guard Evolution,80,6,pvc,17.35,48.7,,,,,fractured_rock,43.2,6.25,,,,,,,,,,,,,,,
ETH,Ethiopia,,Itang(Tierkidi & Kule),It-BH5,ETH--002,Unknown,8.18503,34.26093072,426.7,inactive,20-7-2014,,,48.5,4,,,40,,,,,6,pvc,,,,,,,,43.2,,9/3/2014,143,6.41,,0.11,,0.63,0.66,,,,,,,
GHA,Ghana,GHAs004585,Fetentaa Camp,UN/NCS-002-07-2011,GHA-GHAs004585-002,Unknown,7.47775,-2.68396667,350,active,3/7/2011,Emmanual,22-5-2019,60,41,electrical_pump,Pedrollo 4SR,57,1,grid,Astra Korea,3,5,pvc,,,,,,,,2.1,6,12/7/2011,550,6.9,1.5,0.1,,0.5,13,1.8,Drilling Report,Water Analysis Report,,,,
JOR,Jordan,JORs004465,Zaatari,BH3,JOR-JORs004465-002,Unknown,32.291283,36.3371,667,active,31-10-2014,,,500,215,electrical_pump,,,,,,,10.75,steel,210,490,,,,,fractured_rock,53,22,,,,,,,,,,Zaatri-BH3-FrankSmits-Concise analysis.pdf,,,,,
JOR,Jordan,JORs004576,Azraq Camp,BH2,JOR-JORs004576-002,Unknown,31.9012,36.623933,640,active,25-4-2014,,,485,138.3,,,,,generator,,,10.75,steel,230,430,,,,,fractured_rock,53,18,,791,,,,,,,,Azraq-BH2-photo-documentation_report-2014,,,,,
KEN,Kenya,KENs001088,Dagahaley,DAG BH 9,KEN-KENs001088-002,Unknown,0.1775,40.27944444,125,active,29-10-2011,,,196,112.12,electrical_pump,Grundfos SP46-20,170,30,grid_generator,,,7.87,pvc,84,154,,,,,porous,50,10,,981,7.51,2.5,,,0.34,1.3,0.01,,,,,,
KEN,Kenya,KENs001089,Hagadera,3,KEN-KENs001089-002,Unknown,-0.00583333,40.36231944,130,active,27-9-2011,,,170,119.5,electrical_pump,Grundfos SP46-20,151,30,generator,,,7.87,pvc,107,149,,,,,porous,46,12.4,,1060,7.98,2.5,,,1.2,1.2,0.01,,,,,,
KEN,Kenya,KENs001091,IFO,1,KEN-KENs001091-002,Unknown,0.10180556,40.30743056,122,active,14-11-2010,,,163.5,108.94,electrical_pump,Grundfos SP46-15,141,30,generator,,,7.87,pvc,100.5,117.5,,,,,porous,51,13.8,,646,7.2,2.5,,,0.4,1,,,,,,,
KEN,Kenya,KENs001093,Kakuma,Borehole 12,KEN-KENs001093-002,Unknown,3.7777,34.82913333,586,active,1/1/2014,,,100,11,electrical_pump,SP 46-12,66,18.5,generator,Perkins,45,8,,,,,,,,,60,,,,,,,,,,,,,,,,Kakuma 4
KEN,Kenya,KENs004592,Kambioos,1,KEN-KENs004592-002,Unknown,-0.03438889,40.39327778,132,active,1/1/2012,,,,,electrical_pump,Grundfos SP60-19,,37,generator,,,7.87,pvc,,,,,,,porous,55,11,,,,2.5,,,,,,,,,,,
KEN,Kenya,KENs009177,IFO 2,3,KEN-KENs009177-002,Unknown,0.13333333,40.31333333,124,active,1/1/2012,,,180,110.9,electrical_pump,Grundfos SP60-19,,37,grid_generator,,,7.87,pvc,,,,,,,porous,42,6.1,,,,2.5,,,,,,,,,,,
LBN,Lebanon,,Ian-Yaacoub,Ian-Yaacoub,LBN--002,Unknown,34.51856667,36.19951667,,active,15-12-2014,,,165,100,electrical_pump,Caprari  125HP,99,90,generator,,,,,,,,,,,,100,,,,,,,,,,,,,,,,
MLI,Mali,MLIs001121,Gao - Tassounfate,,MLI-MLIs001121-002,Unknown,16.33205556,-0.86972222,,active,23-11-2015,,,90,51.43,hand_pump,PMH India,70,,,N/A,,5,pvc,64,87,,,,,fractured_rock,1.2,12,11/12/2015,1158,8.26,25,,,0.02,17.68,,,,,,,Construction UNHCR
MLI,Mali,MLIs001123,Kayes - Fodemanan,,MLI-MLIs001123-002,Unknown,17.03719444,-3.67083333,,inactive,12/4/2015,,,100,,,N/A,,,,N/A,,5,pvc,,,,,,,fractured_rock,,,,,,,,,,,,,,,,,Construction UNHCR(Forage negatif)
MLI,Mali,,Mopti - Barbe,,MLI--002,Unknown,14.49755556,-4.08738889,,active,16-6-2014,,,40,6.24,hand_pump,PMH India,18,,,N/A,,5,pvc,11,25,,,,,fractured_rock,6,5,22-9-2014,756,7.64,,,,0.07,13.93,,,,,,,Construction UNHCR
MOZ,Mozambique,MOZs002392,Maratane,,MOZ-MOZs002392-002,Unknown,-15.26683333,39.2565,,,,,,51,13.5,,,,,,,,,,,,,,,,,,,,,,,,,,,,,,,,,
MWI,Malawi,MWIs002625,Luwani,Sealed BH 7,MWI-MWIs002625-002,Unknown,-15.48011111,34.74319444,,inactive,,,,,,,,,,,,,,,,,,,,,,,,,,,,,,,,,,,,,,
MWI,Malawi,,Kapise,BH 2,MWI--002,Unknown,-15.47651389,34.432675,,active,,,,,,,,,,,,,,,,,,,,,,,,,,,,,,,,,,,,,,
NAM,Namibia,NAMs001250,Osire ,ORC 6,NAM-NAMs001250-002,Unknown,-21.06463333,17.36608333,,active,4/1/2000,,,52,13,electrical_pump,SQF 2.5.2,,0.3,generator,,,,pvc,,,,,,,,1.894,,,,,,,,,,,,,,,,
NER,Niger,NERs001259,Abala,QRC2,NER-NERs001259-002,Unknown,14.91808333,3.42127778,234,active,1/1/2015,,,174,,electrical_pump,"Grundfos, SQFlex",,1.05,solar,,,5,pvc,,,,,,,porous,5,5,23-6-2015,,7.35,2.37,,,1.8,6.16,0.281,,,,,,Screen Type: PVC. Screen length: 25m.
NER,Niger,NERs004228,Mangaize,WVI,NER-NERs004228-002,Unknown,14.67691667,1.95252778,247,inactive,1/1/2012,,,65,12.5,electrical_pump,"Grundfos, SP17A3",34,2.2,generator,,,5,pvc,47.63,61.09,,,,,porous,13,,8/12/2012,,6.73,81.4,1,,0.46,7.48,0.013,,,,,,Operation of the borehole stopped  after emergence situation. Screen Type: PVC. Screen length: 13.79m.
NER,Niger,NERs004466,Tabareybarey,ADRA02,NER-NERs004466-002,Unknown,14.775,0.95590833,250,inactive,1/1/2012,,,,,hand_pump,Vergnet PHV60 ,,,,,,4,pvc,,,,,,,fractured_rock,0.4,24,,,,,,,,,,,,,,,Non operationnel. Screen Type: PVC.
NER,Niger,,Dagne,PLAN03(hors camp),NER--002,Unknown,14.72344444,1.33444444,,inactive,1/1/2013,,,70,,hand_pump,Vergnet PHV60 ,,,,,,4,pvc,,,,,,,fractured_rock,0.4,24,,,,,,,,,,,,,,,Screen Type: PVC
RWA,Rwanda,RWAs002999,Nyabiheke Camp,BH#2,RWA-RWAs002999-002,Unknown,-1.60062333,30.26003833,1492,active,27-6-2005,,,70,140,electrical_pump,Grundfos,54,2.2,generator,LISTER-PETTER,63,7.87,pvc,70,71.5,,,,,fractured_rock,2.2,20,,,6.8,,,,,,,,,,,,
SSD,South Sudan,SSDs004118,Yida,010-BH-B12,SSD-SSDs004118-002,Unknown,10.11431,30.06936,420,active,15-10-2015,,,76,,electrical_pump,Grundfos SQ5 70,51,1.81,generator,"OLYMPIAN PERKIN ENGINE, ",18,4,pvc,66,75,,,,,,4.114,12,,,,,,,,,,,,,,,
SSD,South Sudan,SSDs004119,Doro,Surkum water pump,SSD-SSDs004119-002,Unknown,9.98858,33.74223,,active,,,,35,18,electrical_pump,Grundfos SP 8A - 12,,2.2,grid_generator,,,5,pvc,,,,,,,fractured_rock,10,12,,,,2.5,,,,,,,,,,,
SSD,South Sudan,SSDs004461,Yusif Batil,BH16,SSD-SSDs004461-002,Unknown,9.97139,33.57236,,active,,,,,30,electrical_pump,Grundfos SQ5 - 70,,3.5,generator,,,4,pvc,,,,,,,fractured_rock,6,12,,,,2.5,,,,,,,,,,,
SSD,South Sudan,SSDs004467,Gendrassa,BH29,SSD-SSDs004467-002,Unknown,9.98933333,33.59969444,438,active,,,,,20,electrical_pump,Grundfos,,4,grid_generator,,,4,pvc,,,,,,,fractured_rock,10,10,,,,2.5,,,,,,,,,,,
SSD,South Sudan,SSDs005225,Ajuong Thok ,Borehole 1,SSD-SSDs005225-002,Unknown,9.95438889,30.27594444,430,active,15-3-2013,,,80,52,electrical_pump,SP14-13,75,5.5,generator,,,5,pvc,,,,,,,,5.1,,27-9-2013,52.9,5.28,0.44,0.03,,0.02,0.5,,,,,,,
SSD,South Sudan,SSDs005226,Kaya,BH site1,SSD-SSDs005226-002,Unknown,10.07291667,33.5335,427,active,1/12/2012,,,96,49.4,electrical_pump,Grundfos SP14A-18,70,5.5,grid_generator,,,5,pvc,,,,,,,fractured_rock,15,12,,,,2.5,,,,,,,,,,,
SSD,South Sudan,SSDs008776,Pamir,PBH-1,SSD-SSDs008776-002,Unknown,9.5453,30.2109,,,20-3-2014,,,97,,,,,,,,,6,pvc,,,,,,,,,,,,,,,,,,,,,,,,
TCD,Chad,TCDs002650,Kounougou,P1,TCD-TCDs002650-002,Unknown,14.45716667,21.92991667,,,,,,8.1,4.16,electrical_pump,Grundfos SP5A-215,,4,generator,Perkins / 27,,,,,,,,,,fractured_rock,15,12,,,,,,,,,,,,,,,
TCD,Chad,TCDs002655,Farchana,F11,TCD-TCDs002655-002,Unknown,13.59648889,21.79344722,824,inactive,19-12-2009,,,70,,,,,,,,,5,pvc,,,,,,,fractured_rock,,,,,,,,,,,,,,,,,
TCD,Chad,TCDs002889,Bredjing,F3,TCD-TCDs002889-002,Unknown,13.47777778,21.70191667,716,active,21-6-2004,,,11,2.1,electrical_pump,GRUNDFOS SP8A-25,,4,generator,Olympia,40,6,pvc,,,,,,,porous,12,14,28-1-2016,100,6.4,2.5,,,,,,,,,,,
TCD,Chad,TCDs002891,Iridimi,IRIDF008,TCD-TCDs002891-002,Unknown,15.19858333,22.20136111,,,,,,59,17.5,hand_pump,Vergnet HPV60,,,,,,,,,,,,,,fractured_rock,2.5,10,,,,,,,,,,,,,,,
TCD,Chad,TCDs002895,Amnaback,AMNA F003,TCD-TCDs002895-002,Unknown,15.33172222,22.55019444,,,,,,72,16.5,hand_pump,Vergnet HPV100,,,,,,,,,,,,,,fractured_rock,1.7,10,,,,,,,,,,,,,,,
TCD,Chad,TCDs002988,Gaga,F2,TCD-TCDs002988-002,Unknown,13.78636111,21.45702778,716,inactive,4/12/2005,,,17,4.95,electrical_pump,GRUNDFOS SP8A-18/Grundfos SP14A10 ,,7.5,generator,Olympia,60,6,pvc,,,,,,,porous,10,15,14-1-2016,100,6.7,2.5,,,,,,,,,,,
TCD,Chad,TCDs003104,Dosseye,F19,TCD-TCDs003104-002,Unknown,8.16305556,16.47944444,,active,,,,,,hand_pump,Vergnet HPV60,,,,,,5,pvc,,,,,,,porous,,,,,,,,,,,,,,,,,
TCD,Chad,TCDs004478,Belom,F3,TCD-TCDs004478-002,Unknown,8.26818,18.45229,410,active,27-1-2012,,,51,6.35,hand_pump,Vergnet HPV60,35,,,,,5,pvc,41,51,,,,,porous,2.3,,,,,,,,,,,,,,,,
TCD,Chad,TCDs007759,Doholo,F3,TCD-TCDs007759-002,Unknown,7.59471,16.37536,413,active,8/11/2014,,,43,6.4,hand_pump,Vergnet HPV60,20,,,,,5,pvc,33,43,,,,,porous,6,,,,,,,,,,,,,,,,
TCD,Chad,TCDs080005,Dar Es Salam,Bloc 9,TCD-TCDs080005-002,Unknown,13.61983333,14.3,,active,,,,25,,hand_pump,India Mark II,20,,,,,,,,,,,,,porous,,13,,403,7.79,2.5,,,,,,,,,,,
UGA,Uganda,UGAs001852,Maaji,Deep borehole,UGA-UGAs001852-002,Unknown,3.18297222,31.6555,886,active,21-1-2015,,,43,1.35,hand_pump,U2,30,,,,,5,pvc,,,,,,,fractured_rock,1.1,12,22-1-2015,270,5.96,14.5,,,0.19,0.02,,,,,,,
UGA,Uganda,UGAs001892,Kakoni A,Shallow Well,UGA-UGAs001892-002,Unknown,0.56588889,31.10761111,,active,1/1/1984,,,4,1.1,hand_pump,India mark II,3,,,,,33,,,,,,,,,2,12,20-7-2015,140,6.23,14,,,0.09,0.03,,,,,,,
UGA,Uganda,UGAs001893,Kakoni B,Shallow Well,UGA-UGAs001893-002,Unknown,0.35077778,31.06166667,,active,1/1/2012,,,4.3,1.3,hand_pump,India mark II,3,,,,,33,,,,,,,,,2,12,,,,,,,,,,,,,,,
UGA,Uganda,UGAs001933,Humura,Shallow Well,UGA-UGAs001933-002,Unknown,0.39569444,31.10036111,,active,1/1/2012,,,4.3,1,hand_pump,India mark II,3,,,,,33,,,,,,,,,1,12,,,,,,,,,,,,,,,
UGA,Uganda,UGAs001940,Bukere A,Borehole,UGA-UGAs001940-002,Unknown,0.39358333,31.08422222,,active,,,,48,,hand_pump,India mark II,36,,,,,5,,,,,,,,,1.3,12,,,,,,,,,,,,,,,
UGA,Uganda,UGAs001945,Nakivale,,UGA-UGAs001945-002,Unknown,0.85722222,30.85763889,1285,active,1/1/2008,,,12,,,,,,,,,6,pvc,,,,,,,porous,,12,,,5.84,95.1,,,,,,,,,,,
UGA,Uganda,UGAs002378,Kiryandongo settlement,Panyadoli HC III Borehole,UGA-UGAs002378-002,Unknown,1.93955556,32.1615,1128,active,,,,,19.52,electrical_pump,Grandfos/RSI3000,,,,,,6,pvc,,,,,,,fractured_rock,14.5,12,,397,6.54,2.5,,,,,,,,,,,
UGA,Uganda,UGAs004662,Ayilo ,Ayilo Ext 2,UGA-UGAs004662-002,Unknown,3.28536111,31.92897222,737,active,11/4/2014,,,51,,hand_pump,,21,,,,,,,,,,,,,,2,,,,,,,,,,,,,,,,
UGA,Uganda,UGAs990142,Kyangwali,Block 10 Pdn well,UGA-UGAs990142-002,Unknown,1.15608,30.75446,1168,active,,,,,,electrical_pump,Grundfos/Centrifugal,,1.2,grid_generator,,6.5,,,,,,,,,,6,6,,,,,,,,,,,,,,,Solar working
UGA,Uganda,,Buliti A,Borehole,UGA--002,Unknown,0.35680556,31.079,,active,1/1/2010,,,40,10.1,hand_pump,India mark II,36,,,,,5,steel,,,,,,,,1.5,12,,,,,,,,,,,,,,,
BFA,Burkina Faso,BFAs004224,Mentao,F Chateau Mentao Est,BFA-BFAs004224-003,Unknown,14.01801,-1.658157,312.590454,active,7/7/2013,,,69.53,32,electrical_pump,Grundfos SP8A10,50,1.5,generator,SDMO,12,,,,,,,,,,6,6,,,,,,,,,,,,,,,
BFA,Burkina Faso,BFAs004476,Goudebo,F1,BFA-BFAs004476-003,Unknown,14.157731,-0.062089,274.02,active,11/5/2012,,,63,33.43,electrical_pump,Grundfos SP8A12,55,2.2,generator,HAZ,15,5,pvc,27.6,36.4,65.4,77.1,,,fractured_rock,12,11,25-2-2013,795,6.81,2.21,0.01,,0.26,0.88,0.01,,,,,,SE7 = F1
BFA,Burkina Faso,BFAs004477,Saag-nioniogo,PMH 1,BFA-BFAs004477-003,Unknown,12.539171,-1.463172,,,,,,,,hand_pump,,,,,,,,,,,,,,,,,,,,,,,,,,,,,,,,
CAF,Central African Republic,CAFs004579,Zemio,PE B2,CAF-CAFs004579-003,Unknown,5.01869444,25.11872222,561,active,,,,10.7,10.4,hand_pump,Vergnet,,,,,,3,,,,,,,,,,,,,,2.5,,,,,,,,,,,Asseche Et pompe en panne
CMR,Cameroon,CMRs004007,Mbile,F2-3,CMR-CMRs004007-003,Unknown,4.32433333,14.83544444,648,active,13-7-2014,,,55,11.64,hand_pump,India Mark II,,,,N/A,,4.5,pvc,29,40.7,,,,,,1,10,,,,,,,,,,Borehole Log,Pumping test,-,-,,Forage UNHCR
CMR,Cameroon,CMRs004008,Borgop Site,F 2,CMR-CMRs004008-003,Unknown,6.92625,14.81402778,1253,active,,,,51,,hand_pump,India Mark II,,,,,,4.5,pvc,,,,,,,,,10,10/8/2015,,,,,,,,,,,,,,UNHCR
CMR,Cameroon,CMRs004024,Timangolo,F3,CMR-CMRs004024-003,Unknown,4.61961806,14.54599083,720,active,,,,54,19,hand_pump,India Mark II,31,,,N/A,,4.5,pvc,24,45.5,,,,,,1.29,10,17-7-2014,221,6.9,13,,,,,,Borehole Log,Pumping test,Quality test,-,,Forage UNHCR
CMR,Cameroon,CMRs004028,Gado ,F10-G1,CMR-CMRs004028-003,Unknown,5.74931,14.43424,996,active,13-5-2014,,,58.09,10.8,electrical_pump,interdab,27,,,,,4.5,pvc,,,,,,,,,10,17-11-2015,,,,,,,,,,,,,,UNICEF Grundfos 0.605
CMR,Cameroon,CMRs004589,Minawao,F3 (Ourozoel),CMR-CMRs004589-003,Unknown,10.57286667,13.85873333,605,active,20-5-2015,,,46,8.43,electrical_pump,Grundfos,,,generator,,,5,pvc,25.3,37.3,,,,,fractured_rock,6,8,15-5-2015,95,6.5,,,,,,,,,,,,Forage UNHCR
CMR,Cameroon,CMRs005228,Ngam Site,F 2,CMR-CMRs005228-003,Unknown,6.73366667,14.56905556,,active,,,,,,hand_pump,India Mark II,,,,,,4.5,pvc,,,,,,,,,10,10/12/2015,,,,,,,,,,,,,,HCR
CMR,Cameroon,CMRs005229,Lolo,F7,CMR-CMRs005229-003,Unknown,4.27769444,14.90652778,626,active,3/3/2014,,,91,8.5,hand_pump,India Mark II,,,,N/A,,4.5,pvc,76,91,,,,,,1.2,10,14-5-2014,209,6.79,3.7,,,,,,Borehole Log,Pumping test,Quality test,-,,Forage UNHCR
CMR,Cameroon,CMRs008564,Ngarisongo,F1,CMR-CMRs008564-003,Unknown,3.55319444,15.05844444,573,active,28-8-2014,,,58,,hand_pump,India Mark II,,,,N/A,,4.5,pvc,26.9,38.7,,,,,,,,,,,,,,,,,Borehole Log,-,-,-,,Forage UNHCR
CMR,Cameroon,,Adamoua,Djaoro Mone F1,CMR--003,Unknown,7.075934,15.12212818,1086,active,30-12-2008,,,45,11.34,hand_pump,,24,,,,,5,pvc,17.1,28.9,34.8,40.7,,,fractured_rock,1.4,10,,,,,,,,,,,,,,,
COD,Democratic Republic of Congo,CODs002391,Mole,F8,COD-CODs002391-003,Unknown,4.13125,18.79913889,387,active,6/2/2015,,,41.45,13,hand_pump,Hydro_Vergnet,27,,,,,4,pvc,,,,,,,fractured_rock,1.2,10,14-3-2015,50.4,4.64,2.5,,,,,,,,,,,
COD,Democratic Republic of Congo,CODs005128,Inke,F20,COD-CODs005128-003,Unknown,4.09030556,20.76663889,413,active,9/12/2014,,,52,7.67,hand_pump,INDIA Mark II,,,,,,5,pvc,50,62,,,,,fractured_rock,2.6,10,25-9-2014,57.1,6,4.6,,,,4.3,,,,,,,
COD,Democratic Republic of Congo,CODs005223,Boyabu,F4,COD-CODs005223-003,Unknown,3.73186111,18.76247222,370,active,13-5-2014,,,49.2,7,hand_pump,INDIA Mark II,,,,,,5,pvc,,,,,,,porous,2.67,10,28-8-2014,142.6,6.2,12.3,,,,,,,,,,,
DZA,Algeria,DZAs000020,Dakhla,OBL-01,DZA-DZAs000020-003,Unknown,26.84036111,-6.85935278,330,inactive,,,,,,,,,,,,,,,,,,,,,,,,,,,,,,,,,,,,,,
DZA,Algeria,DZAs000021,Layoune,GL-06,DZA-DZAs000021-003,Unknown,27.77189722,-7.99544444,382.2,active,1/3/2012,,,80,8.6,electrical_pump, submersible pump(Caprari) EX6-40-8,55,4,grid,/,,9.5,steel,2.2,,,,,,porous,6.47,14,5/3/2015,2127,7.3,5,,,1.73,110,0.34,,,,,,
ERI,Eritrea,ERIs002007,Umkulu,Borehole ID#1,ERI-ERIs002007-003,Unknown,15.589901,39.39152938,54,inactive,25-12-2012,,,40,4.1,,,,,,,,,,,,,,,,,6.48,,,,,,,,,,,,,,,,
ETH,Ethiopia,ETHs000162,PUGNIDO 1,BoreHole(BH09) new @V-17 site,ETH-ETHs000162-003,Unknown,7.672464,34.23641737,,active,27-3-2015,,,115,25.15,electrical_pump,Submersible,74,18.5,generator,cumins,,6,pvc,,,,,,,,37.77,,,,,,,,,,,,,,,,
ETH,Ethiopia,ETHs000167,Sherkole ,Homosha BH #2,ETH-ETHs000167-003,Unknown,10.310183,34.63485389,1380,inactive,12/11/2012,,,102,8,electrical_pump,STAC/VS19-45,78,11,generator,,60,6,pvc,8.4,49,,,,,fractured_rock,12.24,6,,,,,,,,,,,,,,,
ETH,Ethiopia,ETHs003014,Shimelba,BH#2,ETH-ETHs003014-003,Unknown,14.15951,37.73703275,1032,active,,,,56,10,electrical_pump,STAC/S4-4,52,5.5,generator,,,6,steel,,,,,,,fractured_rock,6.48,4,,,,,,,,,,,,,,,
ETH,Ethiopia,ETHs003858,Mai-Aini,BH#6,ETH-ETHs003858-003,Unknown,13.597258,38.15323313,1302,active,,,,118,20,electrical_pump,E-Tech/ VS 19/24,75,18.5,generator,,,6,steel,,,,,,,fractured_rock,12.6,11,,,,,,,,,,,,,,,
ETH,Ethiopia,ETHs004073,Adiharush,BH#6,ETH-ETHs004073-003,Unknown,13.593472,38.15133325,1312,active,23-11-2011,,,75.4,8.6,electrical_pump,NA,64,,generator,,,6,pvc,,,,,,,fractured_rock,23.4,9,,,,,,,,,,,,,,,
ETH,Ethiopia,ETHs004591,Bambasi,Bambasi Borehole#4,ETH-ETHs004591-003,Unknown,9.76601667,34.78008333,1347,active,5/1/2005,,,97.5,2,electrical_pump,Grundfos Submersible,80,15,generator,Perkins& Cummins,,6,pvc,,,,,,,,18,10.5,,,,,,,,,,,,,,,
ETH,Ethiopia,ETHs004634,Hitsats,BH#1,ETH-ETHs004634-003,Unknown,14.134915,37.92952156,1035,active,20-11-2013,,,115,11,electrical_pump,Dynatech/DT13-30,84,15,generator,,,6,pvc,,,,,,,fractured_rock,8.28,13,,,,,,,,,,,,,,,
ETH,Ethiopia,ETHs008604,Tsore  ,Tsore BH #2,ETH-ETHs008604-003,Unknown,10.234907,34.61686901,1519,inactive,15-8-2015,,,95,2.7,electrical_pump,,76,11,generator,,,6,pvc,17.6,54.65,,,,,fractured_rock,10.8,,,,,,,,,,,,,,,,
ETH,Ethiopia,,Itang(Tierkidi & Kule),It-BH4,ETH--003,Unknown,8.185941,34.26190477,427.7,inactive,21-7-2014,,,49.5,4,,,41,,,,,6,pvc,,,,,,,,39.6,,31-8-2014,136,6.6,,0.12,,0.57,0.48,,,,,,,
JOR,Jordan,JORs004465,Zaatari,BH2,JOR-JORs004465-003,Unknown,32.280991,36.337528,655,active,7/12/2012,,,430,203,electrical_pump,,408,,,,,10.75,steel,280,430,,,,,fractured_rock,55,18,,,,,,,,,,Zaatari-BH2-Z13-Well-completion_report-2012.pdf,,,,,
KEN,Kenya,KENs001088,Dagahaley,DAG BH 6,KEN-KENs001088-003,Unknown,0.1925,40.28361111,125,active,6/11/2010,,,180,113.24,electrical_pump,Grundfos SP46-20,158.2,30,grid_generator,,,7.87,pvc,102,122,,,,,porous,47,9,,184,7.46,2.5,,,0.36,0.2,0.01,,,,,,
KEN,Kenya,KENs001089,Hagadera,8,KEN-KENs001089-003,Unknown,0.00083333,40.36805556,122,active,9/9/2009,,,160,110.47,electrical_pump,Lorentz,140.8,18.5,grid_generator,,,6,pvc,90,138,,,,,porous,32,6,,939,8.31,2.5,,,0.9,2.5,0.01,,,,,,
KEN,Kenya,KENs001091,IFO,8,KEN-KENs001091-003,Unknown,0.12916667,40.30841389,124,active,12/9/2009,,,168,109.63,electrical_pump,Grundfos SP30-21,147,18.5,generator,,,7.87,pvc,92,146,,,,,porous,28,12,,815,7.14,2.5,,,0.8,0.23,0.01,,,,,,
KEN,Kenya,KENs001093,Kakuma,Borehole 8,KEN-KENs001093-003,Unknown,3.77758333,34.82916667,587,active,1/1/2004,,,58,8.77,electrical_pump,SP 30-13,55,11,generator,Perkins,40,8,,,,,,,,,32.1,,,,,,,,,,,,,,,,Kakuma 3 - Nasibunda and clinic six tanks.
KEN,Kenya,KENs009177,IFO 2,4,KEN-KENs009177-003,Unknown,0.14854722,40.31434722,123,active,1/1/2011,,,192,110.7,electrical_pump,Grundfos SP60-19,,37,grid_generator,,,7.87,pvc,,,,,,,porous,42,7.12,,,,2.5,,,,,,,,,,,
KEN,Kenya,,Abakoley,Meri,KEN--003,Unknown,0.49511111,39.84661111,180,active,,,,,,,,,,,,,,,,,,,,,,,,,,,,,,,,,,,,,,
MLI,Mali,MLIs001121,Gao - Tilatane,,MLI-MLIs001121-003,Unknown,16.21222222,-0.51222222,,active,15-10-2015,,,75,53.73,hand_pump,PMH India,62,,,N/A,,5,pvc,60,75,,,,,fractured_rock,1.5,12,12/2/2015,650,7.31,2,,,,1.34,,,,,,,Rehabilitation UNHCR
MLI,Mali,MLIs001123,Kayes - Senkole,,MLI-MLIs001123-003,Unknown,16.39794444,-2.72569444,70,active,20-7-2015,,,53,16.9,electrical_pump,SHVA Grundfos,30,,solar,Photovoltaique,0.6,5,pvc,21.7,39.28,,,,,fractured_rock,3.33,8,3/8/2015,573,7.69,16,,,0.11,0.14,,,,,,,Construction UNHCR
MLI,Mali,,Mopti - Boni,,MLI--003,Unknown,15.07666667,-2.07,60,active,,,,49,28,electrical_pump,AES Franklein,30.76,0.16,generator,Genelec,30,5,pvc,,,,,,,fractured_rock,10,5,,,,,,,,,,,,,,,Rehabilitation UNHCR
MWI,Malawi,MWIs002625,Luwani,BH 5,MWI-MWIs002625-003,Unknown,-15.478225,34.74325,,inactive,,,,,,,,,,,,,,,,,,,,,,,,,,,,,,,,,,,,,,
NAM,Namibia,NAMs001250,Osire ,ORC 4,NAM-NAMs001250-003,Unknown,-21.06796667,17.36621667,,active,1/1/2000,,,49,13.1,electrical_pump,SQ2-35,,0.7,,,,,pvc,,,,,,,,1.8,,,,,,,,,,,,,,,,
NER,Niger,NERs001259,Abala,UNHCR-ACTED,NER-NERs001259-003,Unknown,14.93861111,3.43305556,233,active,6/12/2012,,,165,33.6,electrical_pump,"Grundfos, SP14A25",70,7.5,solar_generator,,,5,pvc,52,60.91,87.7,129.22,141.01,158.8,porous,15.6,8,23-6-2015,,7.59,1.62,,,2.06,3.08,0.0363,,,,,,Screen Type: PVC. Screen length: 68m.
NER,Niger,NERs004228,Mangaize,OXFAM,NER-NERs004228-003,Unknown,14.676,1.95288889,234,active,1/1/2012,,,92,16,electrical_pump,"Rock, 4SD5500T",41,5.5,generator,,,5,pvc,59.1,89.1,,,,,porous,14,8,27-5-2015,,6.27,12.27,,,0.18,2.64,0.393,,,,,,Screen Type: PVC. Screen length: 30m.
NER,Niger,NERs004466,Tabareybarey,PLAN01,NER-NERs004466-003,Unknown,14.77936111,0.95908333,253,inactive,1/1/2013,,,80,,hand_pump,Vergnet PHV60 ,,,,,,4,pvc,,,,,,,fractured_rock,0.4,24,,,,,,,,,,,,,,,Non operationnel. Screen Type: PVC.
UGA,Uganda,UGAs004662,Ayilo ,Ayilo Ext 5,UGA-UGAs004662-003,Unknown,3.28063889,31.92986111,730,active,20-4-2014,,,54,,hand_pump,,21,,,,,,,,,,,,,,1.5,,,,,,,,,,,,,,,,
NER,Niger,NERs009392,Intikane,EUKINAWANE,NER--003,Unknown,15.72222222,4.50277778,325,active,1/1/1963,,,722.84,38,electrical_pump,"Grundfos, SP46A10",73.2,15,solar_generator,,,8,pvc,683.51,716.09,,,,,porous,50,10,23-6-2015,,7.1,,,,,9.48,0.121,,,,,,Screen Type: PVC. Screen length: 32.58m.
SSD,South Sudan,SSDs004118,Yida,015-BH-B9,SSD-SSDs004118-003,Unknown,10.09991,30.07335,419,active,15-10-2015,,,80,41.225,electrical_pump,"Grundfos <br>SP 14 - 13, 4KW",60,4,grid_generator,PERKINS ENGINE,17,5,pvc,65,68,71,77,,,,14,7.6,,,,,,,,,,,,,,,
SSD,South Sudan,SSDs004119,Doro,Mayak,SSD-SSDs004119-003,Unknown,9.98333,33.74301,,active,,,,,18,electrical_pump,Grundfos SQ 5-70,,1.85,generator,,,4,pvc,,,,,,,fractured_rock,4.5,12,,,,2.5,,,,,,,,,,,
SSD,South Sudan,SSDs004461,Yusif Batil,BH15,SSD-SSDs004461-003,Unknown,9.97133,33.57407,,active,2/4/2015,,,,30,electrical_pump,Grundfos SQ5 - 70,,3.5,grid_generator,,,4,pvc,,,,,,,fractured_rock,5.6,12,,,,2.5,,,,,,,,,,,
SSD,South Sudan,SSDs004467,Gendrassa,BH9  ,SSD-SSDs004467-003,Unknown,9.98797222,33.59983333,437,active,,,,,20,electrical_pump,Grundfos,,4,generator,,,4,pvc,,,,,,,fractured_rock,9,10,,,,2.5,,,,,,,,,,,
SSD,South Sudan,SSDs005225,Ajuong Thok ,Borehole 2,SSD-SSDs005225-003,Unknown,9.96127778,30.27594444,430,active,28-3-2013,,,81,52.2,electrical_pump,SP14-14,70,5.5,generator,,,5,pvc,,,,,,,,18,,27-9-2013,43.6,5.63,1.32,0.01,,0.05,0.6,,,,,,,
SSD,South Sudan,SSDs005226,Kaya,BH site3,SSD-SSDs005226-003,Unknown,10.06936111,33.53536111,428,active,1/3/2013,,,90,55,electrical_pump,Grundfos SP14A-18,69,5.5,grid_generator,,,5,pvc,,,,,,,fractured_rock,15,12,,,,2.5,,,,,,,,,,,
SSD,South Sudan,SSDs008776,Pamir,PBH-4,SSD-SSDs008776-003,Unknown,9.5417,30.2147,,,23-3-2014,,,95,,,,,,,,,6,pvc,,,,,,,,,,,,,,,,,,,,,,,,
TCD,Chad,TCDs002650,Kounougou,KOUN F006,TCD-TCDs002650-003,Unknown,14.77386111,22.56469444,,,30-4-2010,,,46,20,hand_pump,Vergnet HPV60,,,,,,,,,,,,,,fractured_rock,2.48,10,,,,,,,,,,,,,,,
TCD,Chad,TCDs002655,Farchana, F01,TCD-TCDs002655-003,Unknown,13.58216667,21.82061111,896,inactive,1/5/2004,,,35,12.63,,Grundfos SP8A30,,4,,,,5,pvc,21,33,,,,,fractured_rock,6.2,10,28-1-2016,200,6.68,2.5,,,,,,,,,,,
TCD,Chad,TCDs002889,Bredjing, F1,TCD-TCDs002889-003,Unknown,13.47802778,21.70227778,715,active,6/12/2004,,,11,3.6,electrical_pump,GRUNDFOS SP14A-30,8,7.5,generator,Olympia,40,6,pvc,,,,,,,porous,30,14,28-1-2016,100,6.68,2.5,,,,,,,,,,,
TCD,Chad,TCDs002988,Gaga,F4,TCD-TCDs002988-003,Unknown,13.786,21.45719444,716,active,23-5-2009,,,7.8,5,electrical_pump,GRUNDFOS SP8A-18,,4,,,,,pvc,,,,,,,porous,14,13,,,,2.5,,,,,,,,,,,
TCD,Chad,TCDs003104,Dosseye,F18,TCD-TCDs003104-003,Unknown,8.16166667,16.48027778,,active,,,,,,hand_pump,Vergnet HPV60,,,,,,5,pvc,,,,,,,porous,,,,,,,,,,,,,,,,,
TCD,Chad,TCDs004478,Belom,F4,TCD-TCDs004478-003,Unknown,8.27097,18.45247,414,active,10/10/2012,,,54,7.45,hand_pump,Vergnet HPV60,28,,,,,5,pvc,41,54,,,,,porous,2.3,,,,,,,,,,,,,,,,
TCD,Chad,TCDs007759,Doholo,F6,TCD-TCDs007759-003,Unknown,7.59664,16.37621,426,active,27-10-2014,,,50,5.1,hand_pump,Vergnet HPV60,20,,,,,5,pvc,40,50,,,,,porous,6.8,,,,,,,,,,,,,,,,
TCD,Chad,TCDs080005,Dar Es Salam,Bloc 10,TCD-TCDs080005-003,Unknown,13.61708333,14.30022222,,active,,,,25,,hand_pump,India Mark II,20,,,,,,,,,,,,,porous,,13,,,,2.5,,,,,,,,,,,
UGA,Uganda,UGAs001940,Bukere A,Shallow Well,UGA-UGAs001940-003,Unknown,0.38827778,31.09963889,,active,1/1/2011,,,4,1.3,hand_pump,India mark II,3,,,,,33,,,,,,,,,1,12,,,,,,,,,,,,,,,
UGA,Uganda,UGAs001945,Nakivale,,UGA-UGAs001945-003,Unknown,0.85225,30.86186111,1268,active,1/1/2008,,,30,,,,,,,,,6,pvc,,,,,,,porous,,12,,,5.59,24.9,,,0.28,0.05,,,,,,,
UGA,Uganda,UGAs002378,Kiryandongo settlement,Adong Adira,UGA-UGAs002378-003,Unknown,1.93088889,32.14163889,3522,active,,,,,,hand_pump,U2,20.4,,,,,6,pvc,,,,,,,fractured_rock,7.85454545,12,,466,6.6,5,,,,,,,,,,,
UGA,Uganda,UGAs004630,Nyumanzi,Nyimanzi I 9/10,UGA-UGAs004630-003,Unknown,3.46458333,31.93986111,634,active,9/3/2014,,,51,17.1,,,,,,,,,,,,,,,,,1.47,,,,,,,,,,,,,,,,
UGA,Uganda,UGAs990142,Kyangwali,Block 72,UGA-UGAs990142-003,Unknown,1.19284,30.78083,1162,active,,,,,,electrical_pump,Grundfos/Centrifugal,,1.2,generator,,60,,,,,,,,,,2.5,18,,,,,,,,,,,,,,,Functional 
UGA,Uganda,,Buliti A,Borehole,UGA--003,Unknown,0.36058333,31.08258333,,active,1/1/1995,,,45,9,hand_pump,India mark II,39,,,,,5,steel,,,,,,,,1,12,,,,,,,,,,,,,,,
BFA,Burkina Faso,BFAs004224,Mentao,PMH 8 Menato Sud,BFA-BFAs004224-004,Unknown,13.996808,-1.674849,,,,,,,,hand_pump,,,,,,,,,,,,,,,,,,,,,,,,,,,,,,,,
BFA,Burkina Faso,BFAs004476,Goudebo,PMH ADRA,BFA-BFAs004476-004,Unknown,14.160612,-0.062588,261,,,,,70,18.6,hand_pump,,,,,,,,,,,,,,,fractured_rock,,,,,,,,,,,,,,,,,
BFA,Burkina Faso,BFAs004477,Saag-nioniogo,PMH 4 (Centre Animation).,BFA-BFAs004477-004,Unknown,12.540874,-1.462043,,,,,,,,hand_pump,,,,,,,,,,,,,,,,,,,,,,,,,,,,,,,,
CAF,Central African Republic,CAFs004579,Zemio,PE B1,CAF-CAFs004579-004,Unknown,5.01736111,25.12019444,568,active,,,,9.9,7.8,hand_pump,India II,,,,,,3,,,,,,,,,1.8,20,,,,2.5,,,,,,,,,,,Cette pompe est tombee en panne juste avant les analyses
CMR,Cameroon,CMRs004007,Mbile,F2-7,CMR-CMRs004007-004,Unknown,4.32663889,14.83577778,644,active,,,,,,hand_pump,India Mark II,,,,N/A,,4.5,pvc,,,,,,,,,,,,,,,,,,,-,-,-,-,,Forage Plan
CMR,Cameroon,CMRs004008,Borgop Site,P3,CMR-CMRs004008-004,Unknown,6.92452778,14.81491667,1240,active,,,,,,hand_pump,India Mark II,,,,,,4.5,pvc,,,,,,,,,7,10/10/2015,,,,,,,,,,,,,,UNHCR
CMR,Cameroon,CMRs004024,Timangolo,F2,CMR-CMRs004024-004,Unknown,4.62086111,14.54608333,719,active,,,,52,18,hand_pump,India Mark II,28,,,N/A,,4.5,pvc,36.5,66.5,,,,,,1.38,10,17-7-2014,216,7.3,9,,,,,,Borehole Log,Pumping test,Quality test,-,,Forage UNHCR
CMR,Cameroon,CMRs004028,Gado ,F16-G1,CMR-CMRs004028-004,Unknown,5.75263,14.43548,938,active,24-7-2014,,,60,,electrical_pump,interdab,,,,,,4.5,pvc,,,,,,,,,10,17-11-2015,,,,,,,,,,,,,,UNICEF
CMR,Cameroon,CMRs004589,Minawao,F1 (Ourozoel),CMR-CMRs004589-004,Unknown,10.57638333,13.85963333,604,active,4/4/2015,,,43,7.46,electrical_pump,Grundfos,,,generator,,,5,pvc,21.3,33.3,,,,,fractured_rock,5.5,8,11/4/2015,189.6,7.94,,,,,,,,,,,,Forage UNHCR
CMR,Cameroon,CMRs005228,Ngam Site,F1,CMR-CMRs005228-004,Unknown,6.73497222,14.56986111,,active,,,,,,hand_pump,India Mark II,,,,,,4.5,pvc,,,,,,,,,10,10/12/2015,,,,,,,,,,,,,,HCR
CMR,Cameroon,CMRs005229,Lolo,F10,CMR-CMRs005229-004,Unknown,4.27869444,14.90663889,627,active,5/4/2014,,,52,12.7,hand_pump,India Mark II,,,,N/A,,4.5,pvc,45.2,53,,,,,,6.96,10,,,,,,,,,,Borehole Log,Pumping test,,-,,Forage UNHCR
CMR,Cameroon,,Adamoua,Babongo Dakere F1,CMR--004,Unknown,6.832263,14.21443261,1116,active,21-12-2015,,,60,18,hand_pump,,30,,,,,5,pvc,18.7,30.5,36.4,42.3,48.2,54.1,porous,0.95,10,,,,,,,,,,,,,,,
COD,Democratic Republic of Congo,CODs002391,Mole,F7,COD-CODs002391-004,Unknown,4.13211111,18.79955556,388,active,6/2/2015,,,43.45,13,hand_pump,Hydro_Vergnet,24,,,,,4,pvc,,,,,,,fractured_rock,1.4,10,20-1-2015,46.4,5.6,2.5,,,,,,,,,,,
COD,Democratic Republic of Congo,CODs005128,Inke,F14,COD-CODs005128-004,Unknown,4.10227778,20.76688889,409,active,3/12/2014,,,50,6.43,hand_pump,INDIA Mark II,,,,,,5,pvc,48,64,,,,,fractured_rock,3,10,16-10-2014,43.9,5.7,0.2,,,,34.7,,,,,,,
COD,Democratic Republic of Congo,CODs005223,Boyabu,F8,COD-CODs005223-004,Unknown,3.73783333,18.76397222,374,active,18-6-2014,,,49.2,5.77,hand_pump,INDIA Mark II,,,,,,5,pvc,,,,,,,porous,2.8,10,28-8-2014,35.5,5.4,1.7,,,,,,,,,,,
DZA,Algeria,DZAs000021,Layoune,GL-08,DZA-DZAs000021-004,Unknown,27.77782222,-7.99566389,388,active,1/5/2013,,,101,9.4,electrical_pump,submersible pump (Caprari EX6-40-8),62,4,grid,/,,9.5,steel,2.3,,,,,,porous,14.94,13,5/3/2015,2194,7.2,5,,,1.81,107,0.34,,,,,,
ERI,Eritrea,ERIs002007,Umkulu,Borehole ID#7,ERI-ERIs002007-004,Unknown,15.595252,39.39234171,53,inactive,25-8-2013,,,32,2.95,,,,,,,,,,,,,,,,,5.4,,,,6.9,0.8,,,,,,,,,,,
ETH,Ethiopia,ETHs000162,PUGNIDO 1,BoreHole(BH10) new @satelite site,ETH-ETHs000162-004,Unknown,7.675188,34.24821929,,active,14-4-2014,,,125,28.6,electrical_pump,Solar pump,76,11,solar,,,6,pvc,,,,,,,,35.97,8,,,,,,,,,,,,,,,
ETH,Ethiopia,ETHs003858,Mai-Aini,BH#4,ETH-ETHs003858-004,Unknown,13.598876,38.16380178,1321,active,30-12-2008,,,82,9,electrical_pump,STAC/VS14-26,78,11,generator,,,6,steel,,,,,,,fractured_rock,6.48,5,,,,,,,,,,,,,,,
ETH,Ethiopia,ETHs004073,Adiharush,BH#8,ETH-ETHs004073-004,Unknown,13.586786,38.15258634,1311,active,20-6-2013,,,165,7.9,electrical_pump,CAPRARI/E6X30/28,158,9.2,generator,,,6,pvc,,,,,,,fractured_rock,2.88,,,,,,,,,,,,,,,,
ETH,Ethiopia,ETHs004634,Hitsats,SBH#1,ETH-ETHs004634-004,Unknown,14.103846,37.95914098,1074,active,,,,39,7,electrical_pump,GRUNDFORS/SPQA-50,36,5.5,generator,,,6,pvc,,,,,,,fractured_rock,7.2,13,,,,,,,,,,,,,,,
ETH,Ethiopia,,Itang(Tierkidi & Kule),BoreHole 1 (BH02),ETH--004,Unknown,8.18443333,34.2592,442,inactive,30-5-2015,,,39,7,,,,,,,,6,pvc,,,,,,,,46.8,,,,,,,,,,,,,,,,
KEN,Kenya,KENs001088,Dagahaley,DAG BH 8,KEN-KENs001088-004,Unknown,0.20166667,40.2875,124,active,10/10/2013,,,175,112,electrical_pump,Grundfos SP46-20,156,30,generator,,,7.87,pvc,91,151,,,,,porous,50,9,,823,7.3,2.5,,,0.4,0.4,0.01,,,,,,
KEN,Kenya,KENs001089,Hagadera,7,KEN-KENs001089-004,Unknown,-0.0125,40.37222222,127,active,28-9-2011,,,170,116.9,electrical_pump,Grundfos SP46-20,151,30,generator,,,7.87,pvc,104,150,,,,,porous,46,13.7,,1060,8.1,2.5,,,1.4,4.8,0.01,,,,,,
KEN,Kenya,KENs001091,IFO,5,KEN-KENs001091-004,Unknown,0.11166667,40.31638889,125,active,1/3/2012,,,163,110,electrical_pump,Grundfos SP46-20,147,30,generator,,,7.87,pvc,100,145,,,,,porous,39,12,,841,8.1,2.5,,,0.52,0.8,0.01,,,,,,
KEN,Kenya,KENs001093,Kakuma,IOM Borehole,KEN-KENs001093-004,Unknown,3.77503333,34.83031667,587,active,1/1/2004,,,70,6.17,electrical_pump,SP 30-13,48,11,generator,Perkins,30,8,,,,,,,,,31.2,,,,,,,,,,,,,,,,Kakuma 3 Nasibunda tanks.
KEN,Kenya,KENs009177,IFO 2,D,KEN-KENs009177-004,Unknown,0.14525833,40.32337222,123,active,1/1/2010,,,140,109,electrical_pump,Lorentz,,,solar,,,7.87,pvc,,,,,,,porous,4,6,,,,2.5,,,,,,,,,,,
KEN,Kenya,,Arba Jahan,Arba Jahan,KEN--004,Unknown,2.07072222,39.00327778,360,active,,,,,,,,,,,,,,,,,,,,,,,,,,,,,,,,,,,,,,
MLI,Mali,MLIs001121,Gao - Tinadjarof,,MLI-MLIs001121-004,Unknown,16.18194444,-0.61,,active,15-10-2015,,,96,44.7,hand_pump,PMH India,60,,,N/A,,5,pvc,70,83,,,,,fractured_rock,1.8,8,11/8/2015,991,7.77,4,,,,5.3,,,,,,,Rehabilitation UNHCR
MLI,Mali,,Mopti - Gnirignara,FP1,MLI--004,Unknown,15.35638889,-4.72277778,,active,3/7/2014,,,86.8,48.75,hand_pump,PMH India,57,,,N/A,,5,pvc,63.36,80.7,,,,,fractured_rock,1.54,2,3/7/2014,311,8.21,,,,,4.9,,,,,,,Construction UNHCR
MWI,Malawi,MWIs002625,Luwani,Sealed BH 5,MWI-MWIs002625-004,Unknown,-15.48128611,34.74325,,inactive,,,,,,,,,,,,,,,,,,,,,,,,,,,,,,,,,,,,,,
NAM,Namibia,NAMs001250,Osire ,ORC 3,NAM-NAMs001250-004,Unknown,-21.06738333,17.36666667,,active,6/1/2000,,,52,14.1,electrical_pump,SQF 2.5.2,,0.3,generator,,,,pvc,,,,,,,,2,,,,,,,,,,,,,,,,
NER,Niger,NERs004228,Mangaize,QR4,NER-NERs004228-004,Unknown,14.67908333,1.95505556,241,active,1/1/2015,,,69.7,,electrical_pump,"Grundfos, SQFlex",,1.1,solar,,,5,pvc,,,,,,,porous,5.5,5,,,,,,,,,,,,,,,Screen Type: PVC. Screen length: 24m.
NER,Niger,,Kaguira,PLAN04(hors camp),NER--004,Unknown,14.409,1.24275,,inactive,1/1/2013,,,80,,hand_pump,Vergnet PHV60 ,,,,,,4,pvc,,,,,,,fractured_rock,0.4,24,,,,,,,,,,,,,,,Screen Type: PVC
SSD,South Sudan,SSDs004118,Yida,008-BH-B8,SSD-SSDs004118-004,Unknown,10.1088,30.07497,421,active,15-12-2015,,,78,46.893,electrical_pump,Grundfos SQ5-70,54,7.5,generator,"OLYMPIAN PERKIN ENGINE, ",50,4.5,pvc,66,75,,,,,,5.673,7.2,,,,,,,,,,,,,,,
SSD,South Sudan,SSDs004119,Doro,New Belila,SSD-SSDs004119-004,Unknown,9.98695,33.74804,,active,,,,28,14,electrical_pump,Grundfos SQ 5-70,,1.85,generator,,,4,pvc,,,,,,,fractured_rock,7.5,12,,,,2.5,,,,,,,,,,,
SSD,South Sudan,SSDs004461,Yusif Batil,PAE1,SSD-SSDs004461-004,Unknown,9.97326,33.57518,,active,28-7-2015,,,,34,electrical_pump,Grundfos SP 14A - 18,,5.5,grid_generator,,,5,pvc,,,,,,,fractured_rock,11.4,12,,,,2.5,,,,,,,,,,,
TCD,Chad,TCDs003104,Dosseye,F26,TCD-TCDs003104-005,Unknown,8.16138889,16.4825,,active,,,,,,hand_pump,Vergnet HPV60,,,,,,5,pvc,,,,,,,porous,,,,,,,,,,,,,,,,,
SSD,South Sudan,SSDs004467,Gendrassa,BH2  ,SSD-SSDs004467-004,Unknown,9.97922222,33.60969444,,active,,,,,20,electrical_pump,Grundfos,,4,generator,,,4,pvc,,,,,,,fractured_rock,10,10,,,,2.5,,,,,,,,,,,
SSD,South Sudan,SSDs005225,Ajuong Thok ,Borehole 3,SSD-SSDs005225-004,Unknown,9.9705,30.27825,430,active,26-6-2013,,,72,52.56,electrical_pump,SP14-15,63,5.5,generator,,,5,pvc,,,,,,,,7.7,,27-9-2013,39,5.99,0.71,0.01,,0.23,1.7,0.001,,,,,,
SSD,South Sudan,SSDs005226,Kaya,BH site5,SSD-SSDs005226-004,Unknown,10.07511111,33.53780556,427,active,1/12/2012,,,80,54.9,electrical_pump,Grundfos SP14A-18,63,3.5,grid_generator,,,5,pvc,,,,,,,fractured_rock,12.6,8,,,,2.5,,,,,,,,,,,
SSD,South Sudan,SSDs008776,Pamir,PBH-2,SSD-SSDs008776-004,Unknown,9.5442,30.2206,,,28-8-2014,,,82,,,,,,,,,6,pvc,,,,,,,,,,,,,,,,,,,,,,,,
TCD,Chad,TCDs002650,Kounougou,KOUN F001,TCD-TCDs002650-004,Unknown,14.77655556,22.56522222,,,27-4-2010,,,56,14.9,hand_pump,Vergnet HPV60,,,,,,,,,,,,,,fractured_rock,4.01,10,,,,,,,,,,,,,,,
TCD,Chad,TCDs002655,Farchana,F05,TCD-TCDs002655-004,Unknown,13.58230556,21.82325,896,inactive,1/1/2011,,,35,10.39,,,,,,,,5,pvc,23.3,31.8,,,,,fractured_rock,10.16,,,100,,2.5,,,,,,,,,,,
TCD,Chad,TCDs002891,Iridimi,IRIDF004,TCD-TCDs002891-004,Unknown,15.19855556,22.20672222,,,,,,62,23.7,hand_pump,Vergnet HPV60,,,,,,,,,,,,,,fractured_rock,4.3,10,,,,,,,,,,,,,,,
TCD,Chad,TCDs002988,Gaga, F1,TCD-TCDs002988-004,Unknown,13.78638889,21.45722222,715,active,4/7/2005,,,27,4.8,electrical_pump,GRUNDFOS SP14A-30/Grundfos SP14A10 <br><br>,,7.5,generator,Olympia,60,6,pvc,,,,,,,porous,12,15,14-1-2016,100,6.68,2.5,,,,,,,,,,,
TCD,Chad,TCDs003104,Dosseye,F17,TCD-TCDs003104-004,Unknown,8.16472222,16.48111111,,active,,,,,,hand_pump,Vergnet HPV60,,,,,,5,pvc,,,,,,,porous,,,,,,,,,,,,,,,,,
TCD,Chad,TCDs004478,Belom,F2,TCD-TCDs004478-004,Unknown,8.2785,18.45279,411,active,3/10/2012,,,48.5,5.25,hand_pump,Vergnet HPV60,35,,,,,5,pvc,33.5,48.5,,,,,porous,2.1,,,,,,,,,,,,,,,,
TCD,Chad,TCDs007759,Doholo,F5,TCD-TCDs007759-004,Unknown,7.59822,16.37714,426,active,1/12/2014,,,47,3.1,hand_pump,Vergnet HPV60,20,,,,,5,pvc,37,47,,,,,porous,6,,,,,,,,,,,,,,,,
TCD,Chad,TCDs080005,Dar Es Salam,Bloc 1,TCD-TCDs080005-004,Unknown,13.62472222,14.30022222,,active,,,,25,,hand_pump,India Mark II,20,,,,,,,,,,,,,porous,,13,,465,8.19,2.5,,,,,,,,,,,
UGA,Uganda,UGAs001940,Bukere B,Shallow Well,UGA-UGAs001940-004,Unknown,0.38772222,31.09088889,,active,1/1/2012,,,4,1,hand_pump,India mark II,3,,,,,33,,,,,,,,,1.2,12,,,,,,,,,,,,,,,
UGA,Uganda,UGAs001945,Nakivale,,UGA-UGAs001945-004,Unknown,0.80375,30.87425,1253,active,1/1/2009,,,10,,,,,,,,,6,pvc,,,,,,,porous,0.648,12,,,7.22,0.81,,,0.5,,,,,,,,F
UGA,Uganda,UGAs002378,Kiryandongo settlement,Jubilee Bh,UGA-UGAs002378-004,Unknown,1.93180556,32.15086111,1099,active,,,,,,hand_pump,U2,44.4,,,,,6,pvc,,,,,,,fractured_rock,12.16901408,12,,972,6.62,2.5,,,,,,,,,,,
UGA,Uganda,UGAs004630,Nyumanzi,Nyimanzi I 8/10,UGA-UGAs004630-004,Unknown,3.45922222,31.94069444,650,active,8/3/2014,,,42,8.7,,,,,,,,,,,,,,,,,2,,,,,,,,,,,,,,,,
UGA,Uganda,UGAs004662,Ayilo ,Ayilo Camp,UGA-UGAs004662-004,Unknown,3.28472222,31.94527778,777,active,16-3-2013,,,87,14.83,hand_pump,,54,,,,,,,,,,,,,,0.8,,,,,,,,,,,,,,,,
UGA,Uganda,UGAs990142,Kyangwali,Kentomi Pdtn well,UGA-UGAs990142-004,Unknown,1.14630556,30.74369444,1149,active,,,,,,electrical_pump,Grundfos/Centrifugal,,1.2,grid_generator,,16,,,,,,,,,,5,16,,,,,,,,,,,,,,,Solar is under repairing
UGA,Uganda,,Buliti A,Shallow Well,UGA--004,Unknown,0.36044444,31.08269444,,active,1/1/1993,,,4,2,hand_pump,India mark II,3,,,,,33,,,,,,,,,1,12,,,,,,,,,,,,,,,
BFA,Burkina Faso,BFAs004224,Mentao,PMH6 Mentao Sud,BFA-BFAs004224-005,Unknown,13.993261,-1.674291,,,,,,82.49,26.91,hand_pump,,,,,,,,,,,,,,,,2,,,,,,,,,,,,,,,,
BFA,Burkina Faso,BFAs004476,Goudebo,PMH chef de village,BFA-BFAs004476-005,Unknown,14.160089,-0.056503,261,,,,,69,35,hand_pump,,,,,,,,,,,,,,,fractured_rock,,,,,,,,,,,,,,,,,
BFA,Burkina Faso,BFAs004477,Saag-nioniogo,PMH 2 (terrain foot),BFA-BFAs004477-005,Unknown,12.539838,-1.459964,,,,,,,,hand_pump,,,,,,,,,,,,,,,,,,,,,,,,,,,,,,,,
CAF,Central African Republic,CAFs004579,Zemio,PE E2,CAF-CAFs004579-005,Unknown,5.0205,25.12058333,561,active,,,,10.5,9.7,hand_pump,Vergnet,,,,,,3,,,,,,,,,0.86,20,,,,2.5,0.02,,,1.01,0.002,,,,,,Tarrisable
CMR,Cameroon,CMRs004007,Mbile,F2-6,CMR-CMRs004007-005,Unknown,4.33,14.83619444,651,active,14-7-2014,,,51,6.12,hand_pump,India Mark II,,,,N/A,,4.5,pvc,48.5,57,,,,,,3.44,10,2/9/2014,59.7,6.34,6.5,,,,,,Borehole Log,Pumping test,Quality test,-,,Forage UNHCR
CMR,Cameroon,CMRs004024,Timangolo,F11,CMR-CMRs004024-005,Unknown,4.61724,14.54618,723,active,20-12-2014,,,36,11.8,hand_pump,India Mark II,24,,,N/A,,4.5,pvc,24.2,35.4,,,,,,1.2,10,26-12-2014,23.5,5.29,,,,,,,Borehole Log,Pumping test,Quality test,-,,Forage UNHCR
CMR,Cameroon,CMRs004028,Gado ,F9-G2,CMR-CMRs004028-005,Unknown,5.75518,14.12748,955,active,16-6-2015,,,60,9.8,hand_pump,India Mark II,27,,,,,4.5,pvc,,,,,,,,,10,19-11-2015,,,,,,,,,,,,,,Solidarités International
CMR,Cameroon,CMRs004589,Minawao,F13,CMR-CMRs004589-005,Unknown,10.53863333,13.85758333,582,active,15-3-2015,,,45,11.51,foot_pump,Vergnet,,,,,,5,pvc,17.4,29.4,,,,,fractured_rock,0.9,8,20-4-2015,200,7.25,,,,,,,,,,,,Forage UNHCR
CMR,Cameroon,CMRs005228,Ngam Site,F 4,CMR-CMRs005228-005,Unknown,6.73177778,14.57075,,active,,,,,,hand_pump,India Mark II,,,,,,4.5,pvc,,,,,,,,,10,10/12/2015,,,,,,,,,,,,,,UNICEF
CMR,Cameroon,CMRs005229,Lolo,F1,CMR-CMRs005229-005,Unknown,4.27680556,14.90786111,618,active,3/4/2014,,,60,4.68,hand_pump,India Mark II,,,,N/A,,4.5,pvc,41,52.6,,,,,,5.168,10,30-8-2014,87.2,6.24,3.4,,,,,,Borehole Log,Pumping test,Quality test,-,,Forage UNHCR
CMR,Cameroon,,Adamoua,Babongo Dakere F2,CMR--005,Unknown,6.833431,14.21551667,1115,active,22-12-2015,,,59,12.98,hand_pump,,39,,,,,5,pvc,17.7,35.4,41.3,53.1,,,porous,0.8,10,,,,,,,,,,,,,,,
COD,Democratic Republic of Congo,CODs002391,Mole,F6,COD-CODs002391-005,Unknown,4.13225,18.79963889,391,active,5/2/2015,,,44.95,12,hand_pump,Hydro_Vergnet,24,,,,,4,pvc,,,,,,,fractured_rock,4.3,10,28-1-2015,5.58,4.84,2.5,,,,,,,,,,,
COD,Democratic Republic of Congo,CODs005128,Inke,F12,COD-CODs005128-005,Unknown,4.09272222,20.76702778,412,active,1/12/2013,,,58.33,7,hand_pump,INDIA Mark II,,,,,,5,pvc,54.33,62.88,,,,,fractured_rock,,10,16-10-2013,33.6,5.5,0.3,,,,0.1,,,,,,,
COD,Democratic Republic of Congo,CODs005223,Boyabu,F6,COD-CODs005223-005,Unknown,3.73466667,18.76413889,382,active,12/6/2014,,,49.2,8.39,hand_pump,INDIA Mark II,,,,,,5,pvc,,,,,,,porous,2.87,10,28-8-2014,34,5.5,1.1,,,,,,,,,,,
DZA,Algeria,DZAs000021,Layoune,HT-13,DZA-DZAs000021-005,Unknown,27.75634444,-8.03385,392,active,1/12/1997,,,56,13.6,electrical_pump,submersible pump (Panelli 95 PR12 N/29 HP10),40,5.5,grid,/,,9.5,steel,,,,,,,porous,12.41,15,5/3/2015,2280,7.2,5,0.07,8,2.45,90,0.34,,,,,,
ERI,Eritrea,ERIs002007,Umkulu,Borehole ID#6,ERI-ERIs002007-005,Unknown,15.590388,39.39253768,50,inactive,21-8-2013,,,29,1.37,,,,,,,,,,,,,,,,,10.8,,,,6.9,3.4,,,,,,,,,,,
ETH,Ethiopia,ETHs000162,PUGNIDO 1,BoreHole(BH06),ETH-ETHs000162-005,Unknown,7.677085,34.24898632,463,active,1/3/2013,,,110,28.9,electrical_pump,Submersible,73,18.5,generator,Perkins,50,8,pvc,,,,,,,,55.03,4.17,,,,,,,,,,,,,,,
ETH,Ethiopia,ETHs003858,Mai-Aini,BH#2,ETH-ETHs003858-005,Unknown,13.589742,38.16586727,1331,active,30-12-2008,,,118,9,electrical_pump,STAC/VS14-23,80,11,generator,,,6,steel,,,,,,,fractured_rock,9,14,,,,,,,,,,,,,,,
TCD,Chad,TCDs002891,Iridimi,IRIDF002,TCD-TCDs002891-005,Unknown,15.19866667,22.20933333,,,,,,39,24.6,hand_pump,Vergnet HPV60,,,,,,,,,,,,,,fractured_rock,2.5,10,,,,,,,,,,,,,,,
ETH,Ethiopia,ETHs004073,Adiharush,BH#7,ETH-ETHs004073-005,Unknown,13.589595,38.15437875,1312,active,1/7/2013,,,155,4.33,electrical_pump,PANELLI/140PX21/18,147,18.5,generator,,,6,pvc,,,,,,,fractured_rock,13.572,9,,,,,,,,,,,,,,,
ETH,Ethiopia,,Itang(Tierkidi & Kule),BoreHole 1 (BH03),ETH--005,Unknown,8.18448333,34.25941667,422,inactive,6/12/2015,,,45,7,,,,,,,,6,pvc,,,,,,,,46.8,,,,,,,,,,,,,,,,
KEN,Kenya,KENs001088,Dagahaley,DAG BH 3,KEN-KENs001088-005,Unknown,0.1875,40.30083333,124,active,26-10-2011,,,183,110.35,electrical_pump,Grundfos SP46-20,170,30,generator,,,7.87,pvc,102,156,,,,,porous,50,10.7,,756,7.66,2.5,,,0.4,1.3,0.01,,,,,,
KEN,Kenya,KENs001089,Hagadera,1,KEN-KENs001089-005,Unknown,0.00055556,40.37377778,124,active,9/10/2010,,,180,108.8,electrical_pump,Lorentz,158,,grid_generator,,,8,pvc,96,150,,,,,porous,46,9.7,,1628,7.8,2.5,,,0.92,6,0.01,,,,,,
KEN,Kenya,KENs001091,IFO,4,KEN-KENs001091-005,Unknown,0.10590278,40.32256944,123,active,6/10/2011,,,189,108.22,electrical_pump,Grundfos SP46-20,158,30,generator,,,7.87,pvc,109,163,,,,,porous,52,9,,831,7.76,2.5,,,0.6,1,0.01,,,,,,
KEN,Kenya,KENs001093,Kakuma,Borehole 7,KEN-KENs001093-005,Unknown,3.77046667,34.83045,587,active,1/1/2004,,,60,6.98,electrical_pump,SP 8A -15,54,5.5,generator,Perkins,20,8,,,,,,,,,22.2,,,,,,,,,,,,,,,,Reception center tank - Kakuma 3 zones 1 and 2
KEN,Kenya,KENs009177,IFO 2,C,KEN-KENs009177-005,Unknown,0.13622222,40.32675,122,active,1/1/2010,,,163,109.49,electrical_pump,Grundfos SP30-21,,18.5,grid_generator,,,7.87,pvc,,,,,,,porous,29,8,,,,2.5,,,,,,,,,,,
KEN,Kenya,,Athibohol,Athibohol,KEN--005,Unknown,1.70675,39.21383333,330,active,,,,,,,,,,,,,,,,,,,,,,,,,,,,,,,,,,,,,,
MLI,Mali,MLIs001121,Gao - Tindjarane,,MLI-MLIs001121-005,Unknown,15.39761111,-0.53422222,,active,15-12-2015,,,85,65,hand_pump,PMH India,72,,,N/A,,5,pvc,70,85,,,,,fractured_rock,4.8,12,,606,7.69,5,,,1.49,15.49,,,,,,,Construction UNHCR
MLI,Mali,,Mopti - kaoural Djangohi,,MLI--005,Unknown,15.21036111,-2.12680556,,active,23-1-2015,,,91,49,hand_pump,PMH India,,,,N/A,,5,pvc,55.48,87.6,,,,,fractured_rock,1,6,12/3/2013,,,,,,,,,,,,,,Construction UNHCR
NAM,Namibia,NAMs001250,Osire ,ORC 5 ,NAM-NAMs001250-005,Unknown,-21.0646,17.36701667,,active,5/1/2000,,,49,13.8,electrical_pump,SQF 3A-10,,0.4,generator,,,,pvc,,,,,,,,2.482,,,,,,,,,,,,,,,,
NER,Niger,NERs009391,Tazalite,TAZALIT,NER--005,Unknown,16.90041667,5.26344444,374,active,1/1/2013,,,430,41.2,electrical_pump,"Grundfos, SP30A08",74.1,15,generator,,,8,pvc,,,,,,,porous,48,24,23-4-2015,,8.72,,,,,5.28,1.06,,,,,,Screen Type: PVC
SSD,South Sudan,SSDs004118,Yida,014-BH-B7,SSD-SSDs004118-005,Unknown,10.11693,30.07703,426,active,15-10-2015,,,75,,electrical_pump,"Grundfos SQ5-70, 1.8KW",63,1.81,generator,"OLYMPIAN PERKIN ENGINE, ",22,5,pvc,69,73,,,,,,5.07,12,,,,,,,,,,,,,,,
SSD,South Sudan,SSDs004119,Doro,Air Strip ,SSD-SSDs004119-005,Unknown,9.97373,33.74892,,active,,,,26,14,electrical_pump,Grundfos SQ 5-70,,1.85,generator,,,4,pvc,,,,,,,fractured_rock,6,12,,,,2.5,,,,,,,,,,,
SSD,South Sudan,SSDs004461,Yusif Batil,BH45,SSD-SSDs004461-005,Unknown,9.97617,33.57809,,active,22-7-2015,,,,35,electrical_pump,Grundfos SQ5 - 70,,3.5,grid_generator,,,4,pvc,,,,,,,fractured_rock,6,12,,,,2.5,,,,,,,,,,,
SSD,South Sudan,SSDs004467,Gendrassa,BH3,SSD-SSDs004467-005,Unknown,9.97930556,33.60980556,,active,,,,,18,electrical_pump,Grundfos,,4,grid_generator,,,4,pvc,,,,,,,fractured_rock,10,10,,,,2.5,,,,,,,,,,,
SSD,South Sudan,SSDs005226,Kaya,BH site2,SSD-SSDs005226-005,Unknown,10.08130556,33.54136111,430,active,1/12/2012,,,85,56.8,electrical_pump,Grundfos SP14A-18,70,5.5,grid_generator,,,5,pvc,,,,,,,fractured_rock,15,12,,,,2.5,,,,,,,,,,,
TCD,Chad,TCDs002650,Kounougou,KOUN F002,TCD-TCDs002650-005,Unknown,14.77466667,22.57475,,,26-4-2010,,,58,18.55,hand_pump,Vergnet HPV60,,,,,,,,,,,,,,fractured_rock,10,10,,,,,,,,,,,,,,,
TCD,Chad,TCDs002655,Farchana,F03,TCD-TCDs002655-005,Unknown,13.56461111,21.80766667,896,inactive,1/5/2005,,,10.7,3.83,electrical_pump,Grundfos SP14A18,,7.5,generator,COELMO,40,5,pvc,4.5,7.5,,,,,fractured_rock,15.65,18,,100,6.4,2.5,,,,,,,,,,,
TCD,Chad,TCDs002889,Bredjing,F4,TCD-TCDs002889-005,Unknown,13.47783333,21.70180556,716,inactive,,,,,,,,,,,,,,,,,,,,,,,,,,,,,,,,,,,,,,
TCD,Chad,TCDs004478,Belom,F9,TCD-TCDs004478-005,Unknown,8.2705,18.45496,409,active,14-2-2014,,,45,8.5,hand_pump,Vergnet HPV60,33,,,,,5,pvc,32,45,,,,,porous,2.3,,,,,,,,,,,,,,,,
TCD,Chad,TCDs007759,Doholo,F2,TCD-TCDs007759-005,Unknown,8.00031,16.37858,428,active,27-11-2014,,,50.5,6.3,hand_pump,Vergnet HPV60,20,,,,,5,pvc,40.5,50.5,,,,,porous,5.3,,,,,,,,,,,,,,,,
TCD,Chad,TCDs080005,Dar Es Salam,Bloc 4,TCD-TCDs080005-005,Unknown,13.62425,14.30122222,,active,,,,25,18.25,hand_pump,India Mark II,20,,,,,,,,,,,,,porous,1.21,13,,304,7.31,2.5,,,,,,,,,,,
UGA,Uganda,UGAs001940,Bukere B,Shallow Well,UGA-UGAs001940-005,Unknown,0.39336111,31.09530556,,active,1/1/2012,,,4,1.5,hand_pump,India mark II,3,,,,,33,,,,,,,,,1,12,,,,,,,,,,,,,,,
UGA,Uganda,UGAs001945,Nakivale,,UGA-UGAs001945-005,Unknown,0.80288889,30.87502778,1254,active,1/1/2010,,,10,,,,,,,,,6,pvc,,,,,,,porous,0.864,12,,,6.35,85.9,,,0.32,0.02,,,,,,,F
UGA,Uganda,UGAs002378,Kiryandongo settlement,Muhamad BH,UGA-UGAs002378-005,Unknown,1.93180556,32.15086111,1112,active,,,,,,hand_pump,U2,44.4,,,,,6,pvc,,,,,,,fractured_rock,13.67,12,,724,6.7,5,,,,,,,,,,,
UGA,Uganda,UGAs004630,Nyumanzi,Nyimanzi I 5/10,UGA-UGAs004630-005,Unknown,3.47116667,31.94358333,632,active,8/3/2014,,,54,19.11,,,,,,,,,,,,,,,,,4,,,,,,,,,,,,,,,,
UGA,Uganda,UGAs004662,Ayilo 1,Deep borehole,UGA-UGAs004662-005,Unknown,3.28919444,31.92786111,732,active,4/2/2014,,,51,,hand_pump,U2,21,,,,,5,pvc,,,,,,,fractured_rock,2,12,,480,7.5,1.2,,,,0.1,0.009,,,,,,
UGA,Uganda,UGAs990142,Kyangwali,Kyangwali HC III,UGA-UGAs990142-005,Unknown,1.21194444,30.80166667,1156,active,,,,,,electrical_pump,Grundfos/Centrifugal,,1.2,generator,,6,,,,,,,,,,3,4,,,,,,,,,,,,,,,Functional
UGA,Uganda,,Buliti B,Borehole,UGA--005,Unknown,0.36311111,31.09786111,,active,1/1/1984,,,45,4,hand_pump,India mark II,24,,,,,5,pvc,,,,,,,,1.4,12,,,,,,,,,,,,,,,
BFA,Burkina Faso,BFAs004224,Mentao,PMH 11 Mentao Centre,BFA-BFAs004224-006,Unknown,14.012586,-1.674129,,,,,,,,hand_pump,,,,,,,,,,,,,,,,,,,,,,,,,,,,,,,,
CAF,Central African Republic,CAFs004579,Zemio,PE E1,CAF-CAFs004579-006,Unknown,5.02108333,25.12202778,560,active,,,,8.7,8.6,hand_pump,Vergnet,,,,,,3,,,,,,,,,,,,,,2.5,,,,,,,,,,,Asseche Et pompe en panne
CMR,Cameroon,CMRs004007,Mbile,F2-2,CMR-CMRs004007-006,Unknown,4.32430556,14.83652778,645,active,4/12/2014,,,45,10.45,hand_pump,India Mark II,24,,,N/A,,4.5,pvc,17.8,29.2,,,,,,4,10,3/2/2015,29.4,4.9,,,,,0.3,,Borehole Log,Pumping test,Quality test,-,,Forage UNHCR
CMR,Cameroon,CMRs004008,Borgop Site,P1,CMR-CMRs004008-006,Unknown,6.92622222,14.81625,1236,active,,,,,,hand_pump,India Mark II,,,,,,4.5,pvc,,,,,,,,,7,10/10/2015,,,,,,,,,,,,,,UNHCR
CMR,Cameroon,CMRs004024,Timangolo,F1,CMR-CMRs004024-006,Unknown,4.62218722,14.54653444,719,active,,,,55,24,hand_pump,India Mark II,35,,,N/A,,4.5,pvc,38,59,,,,,,1.29,10,17-7-2014,216,7.28,8,,,,,,Borehole Log,Pumping test,Quality test,-,,Forage UNHCR
CMR,Cameroon,CMRs004028,Gado ,F8-G2,CMR-CMRs004028-006,Unknown,5.74779,14.43155,948,active,13-6-2015,,,60,8.78,hand_pump,India Mark II,27,,,,,4.5,pvc,,,,,,,,,10,19-11-2015,,,,,,,,,,,,,,Solidarités International
CMR,Cameroon,CMRs004589,Minawao,F4,CMR-CMRs004589-006,Unknown,10.55286667,13.8626,591,active,1/4/2015,,,46,19.56,foot_pump,Vergnet,,,,,,5,pvc,31.2,37.2,,,,,fractured_rock,1.4,8,18-4-2015,505,7.6,,,,,,,,,,,,Forage UNHCR
CMR,Cameroon,CMRs005228,Ngam Site,F 3,CMR-CMRs005228-006,Unknown,6.73283333,14.57080556,,active,,,,,,hand_pump,India Mark II,,,,,,4.5,pvc,,,,,,,,,10,10/12/2015,,,,,,,,,,,,,,HCR
CMR,Cameroon,CMRs005229,Lolo,F2,CMR-CMRs005229-006,Unknown,4.27686111,14.90927778,619,active,3/8/2014,,,60,11.25,hand_pump,India Mark II,,,,N/A,,4.5,pvc,32,43.6,,,,,,1.328,10,31-8-2014,130,6.4,3.6,,,,,,Borehole Log,Pumping test,Quality test,-,,Forage UNHCR
CMR,Cameroon,,Adamoua,Mikila F1,CMR--006,Unknown,6.722062,14.4590953,1182,active,23-3-2011,,,45,14.72,hand_pump,,24,,,,,5,pvc,31.7,43.5,,,,,porous,1.8,10,,,,,,,,,,,,,,,
COD,Democratic Republic of Congo,CODs002391,Mole,F1,COD-CODs002391-006,Unknown,4.13055556,18.79991667,385,active,7/11/2014,,,34.45,11.1,hand_pump,Hydro_Vergnet,,,,,,4,pvc,,,,,,,fractured_rock,1.1,10,,,4.42,,,,,,,,,,,,
COD,Democratic Republic of Congo,CODs005128,Inke,F10,COD-CODs005128-006,Unknown,4.09838889,20.76713889,411,active,16-11-2013,,,58.33,5,hand_pump,INDIA Mark II,,,,,,5,pvc,54.33,62.88,,,,,fractured_rock,2.45,10,,,,,,,,,,,,,,,
COD,Democratic Republic of Congo,CODs005223,Boyabu,F5,COD-CODs005223-006,Unknown,3.73211111,18.76472222,375,active,5/6/2014,,,48,4.2,hand_pump,INDIA Mark II,,,,,,5,pvc,,,,,,,porous,3.6,10,28-8-2014,596,7,4.7,,,,,,,,,,,
DZA,Algeria,DZAs000021,Layoune,HT-12 bis,DZA-DZAs000021-006,Unknown,27.74638056,-8.04423889,395.4,active,1/1/1996,,,90,15,electrical_pump,submersible pump (Caprari) E6X40 4 ⁄8W,50,4,grid,/,,9.5,steel,1.7,,,,,,porous,7.45,18,5/3/2015,2056,7.5,5,0.07,4,2.09,76,0.34,,,,,,
ERI,Eritrea,ERIs002007,Umkulu,Borehole ID#5,ERI-ERIs002007-006,Unknown,15.597029,39.39464907,48,inactive,17-8-2013,,,19,,,,,,,,,,,,,,,,,,,,,,,,,,,,,,,,,,
ETH,Ethiopia,ETHs000162,PUGNIDO 1,BoreHole(BH11) new @Agnuak site,ETH-ETHs000162-006,Unknown,7.649265,34.26494991,,inactive,29-4-2015,,,125,24,electrical_pump,Submersible,80,,generator,,,6,pvc,,,,,,,,,,,,,,,,,,,,,,,,
ETH,Ethiopia,ETHs004073,Adiharush,BH#9,ETH-ETHs004073-006,Unknown,13.571709,38.16168807,1343,active,15-6-2013,,,165.1,34,electrical_pump,CAPARARI/E6X35/26,158,,generator,,,6,pvc,,,,,,,fractured_rock,12.6,9,,,,,,,,,,,,,,,
ETH,Ethiopia,,Itang(Tierkidi & Kule),BoreHole 1 (BH01),ETH--006,Unknown,8.28550833,34.25171944,423,inactive,30-7-2015,,,57.4,4.7,,,,,,,,6,pvc,,,,,,,,18,,,,,,,,,,,,,,,,
KEN,Kenya,KENs001088,Dagahaley,DAG BH 2,KEN-KENs001088-006,Unknown,0.19277778,40.28138889,125,active,19-10-2011,,,204,113.5,electrical_pump,Grundfos SP30-21,164,18.5,generator,,,7.87,pvc,105,153,,,,,porous,37,7.8,,799,7.45,2.5,,,0.27,1.5,0.01,,,,,,Local community BH
KEN,Kenya,KENs001089,Hagadera,2,KEN-KENs001089-006,Unknown,0.00527778,40.37480556,122,active,27-9-2010,,,153,109.44,electrical_pump,Grundfos SP46-20,134,30,generator,,,8,pvc,93,135,,,,,porous,42,9.9,,1420,7.8,2.5,,,1,5,0.01,,,,,,
KEN,Kenya,KENs001091,IFO,7,KEN-KENs001091-006,Unknown,0.11277778,40.32833333,121,active,25-2-2013,,,180,109.94,electrical_pump,Grundfos SP46-20,143,30,generator,,,7.87,pvc,96,141,,,,,porous,55,10,,827,7.31,2.5,,,0.58,1,0.01,,,,,,
KEN,Kenya,KENs001093,Kakuma,Borehole 7B,KEN-KENs001093-006,Unknown,3.77115,34.83073333,591,active,1/6/2015,,,85,9.85,electrical_pump,not yet installed,,,,,,8,,,,,,,,,16,,,,,,,,,,,,,,,,Anticipated to serve Kakum 3. To be commisioned.
KEN,Kenya,KENs009177,IFO 2,B,KEN-KENs009177-006,Unknown,0.13888889,40.33465278,121,active,1/1/2010,,,180,108.92,electrical_pump,Grundfos SP60-19,,37,grid_generator,,,7.87,pvc,,,,,,,porous,55,7.24,,,,2.5,,,,,,,,,,,
MLI,Mali,MLIs001121,Gao - Tinikene,,MLI-MLIs001121-006,Unknown,15.50700833,-3.01728056,,active,5/11/2014,,,88.4,,hand_pump,PMH India,,,,N/A,,5,pvc,,,,,,,fractured_rock,12,,,,,,,,,,,,,,,,Construction UNHCR
MLI,Mali,,Mopti - Komoguel II,,MLI--006,Unknown,14.50152778,-4.189,,active,8/9/2014,,,40,3.8,hand_pump,PMH India,15,,,N/A,,5,,25,33.7,,,,,fractured_rock,8,5,17-9-2014,112,7.08,,,,,1.77,,,,,,,Construction UNHCR
MWI,Malawi,MWIs002625,Luwani,BH 1,MWI-MWIs002625-006,Unknown,-15.48428889,34.74395278,,inactive,,,,,,,,,,,,,,,,,,,,,,,,,,,,,,,,,,,,,,
NAM,Namibia,NAMs001250,Osire,ORC 2,NAM-NAMs001250-006,Unknown,-21.07155,17.371017,,active,2/1/2000,Jay Matta,9/7/2019,46,13.6,electrical_pump,SQF 3A-10,,0.4,generator,,,,pvc,,,,,,,,2.06,,,,,,,,,,,,,,,,
SSD,South Sudan,SSDs004118,Yida,009-BH-B4,SSD-SSDs004118-006,Unknown,10.1016,30.07896,416,active,23-11-2015,,,76,43.23,electrical_pump,Grundfos SP14A-18,54,7.5,generator,"OLYMPIAN PERKIN ENGINE, ",22,4.5,pvc,64,73,,,,,,14.516,6.3,,,,,,,,,,,,,,,
SSD,South Sudan,SSDs004119,Doro, Bellatuma,SSD-SSDs004119-006,Unknown,9.99448,33.75227,,active,,,,50,35,electrical_pump,Grundfos SQ 5-70,,1.85,generator,,,4,pvc,,,,,,,fractured_rock,2.8,12,,,,2.5,,,,,,,,,,,
SSD,South Sudan,SSDs004461,Yusif Batil,PAE2,SSD-SSDs004461-006,Unknown,9.97249,33.57883,,active,10/6/2015,,,,29,electrical_pump,Grundfos SP 8A - 50,,7.5,generator,,,5,pvc,,,,,,,fractured_rock,12,12,,,,2.5,,,,,,,,,,,
SSD,South Sudan,SSDs004467,Gendrassa,BH22,SSD-SSDs004467-006,Unknown,9.97958333,33.61680556,,active,,,,,20,electrical_pump,Grundfos,,4,grid_generator,,,4,pvc,,,,,,,fractured_rock,10,10,,,,2.5,,,,,,,,,,,
TCD,Chad,TCDs002650,Kounougou,KOUN F003,TCD-TCDs002650-006,Unknown,14.77436111,22.57761111,,,27-4-2010,,,68,19.5,hand_pump,Vergnet HPV60,,,,,,,,,,,,,,fractured_rock,3.01,10,,,,,,,,,,,,,,,
TCD,Chad,TCDs002655,Farchana,F04,TCD-TCDs002655-006,Unknown,13.5645,21.80775,896,active,1/5/2005,,,11,3.88,electrical_pump,Grundfos SP14A18,9.5,7.5,generator,COELMO,40,5,pvc,4.5,7.5,,,,,fractured_rock,18,,,100,6.8,2.5,,,,,,,,,,,
TCD,Chad,TCDs002889,Bredjing,F5,TCD-TCDs002889-006,Unknown,13.47791667,21.70180556,716,inactive,,,,,,,,,,,,,,,,,,,,,,,,,,,,,,,,,,,,,,
TCD,Chad,TCDs003104,Dosseye,F21,TCD-TCDs003104-006,Unknown,8.15972222,16.48305556,,active,,,,,,hand_pump,Vergnet HPV60,,,,,,5,pvc,,,,,,,porous,,,,,,,,,,,,,,,,,
TCD,Chad,TCDs004478,Belom,F6,TCD-TCDs004478-006,Unknown,8.26595,18.45527,407,active,3/2/2013,,,45,6.6,hand_pump,Vergnet HPV60,30,,,,,5,pvc,27,45,,,,,porous,2.3,,,,,,,,,,,,,,,,
TCD,Chad,TCDs007759,Doholo,F1,TCD-TCDs007759-006,Unknown,7.59681,16.37813,431,active,2/12/2014,,,49,5.8,hand_pump,Vergnet HPV60,20,,,,,5,pvc,36,48,,,,,porous,6.1,,,,,,,,,,,,,,,,
TCD,Chad,TCDs080005,Dar Es Salam,Bloc 11,TCD-TCDs080005-006,Unknown,13.61527778,14.30216667,,active,,,,25,,hand_pump,India Mark II,20,,,,,,,,,,,,,porous,,13,,494,9.3,2.5,,,,,,,,,,,
UGA,Uganda,UGAs001945,Nakivale,,UGA-UGAs001945-006,Unknown,0.83180556,30.88727778,1263,active,1/1/2008,,,70,47.68,,,,,,,,6,pvc,,,,,,,porous,,12,,,6.6,15.6,,,0.42,,,,,,,,
UGA,Uganda,UGAs002378,Kiryandongo settlement,Konpaco Borehole,UGA-UGAs002378-006,Unknown,1.94563889,32.151,1092,active,,,,,,hand_pump,U2,38.4,,,,,6,pvc,,,,,,,fractured_rock,15.3,12,,516,6.8,2.5,,,,,,,,,,,
UGA,Uganda,UGAs004630,Nyumanzi,Nyimanzi I 7/10,UGA-UGAs004630-006,Unknown,3.46233333,31.94619444,641,active,10/3/2014,,,45,12.24,,,,,,,,,,,,,,,,,2.2,,,,,,,,,,,,,,,,
UGA,Uganda,UGAs004662,Ayilo 1,Deep borehole,UGA-UGAs004662-006,Unknown,3.28533333,31.92894444,734,active,4/4/2014,,,51,,hand_pump,U2,21,,,,,5,pvc,,,,,,,fractured_rock,2,12,,465,7.4,3.8,,,,1.2,0.007,,,,,,
UGA,Uganda,UGAs990142,Kyangwali,,UGA-UGAs990142-006,Unknown,1.10144,30.44894,,active,16-4-2015,,,,,hand_pump,,,,,,,,,,,,,,,,981.8181818,,,,,,,,,,,,,,,,Functional 
UGA,Uganda,,Buliti B,Borehole,UGA--006,Unknown,0.38077778,31.08891667,,active,,,,39,5.25,hand_pump,India mark II,24,,,,,5,steel,,,,,,,,1.4,12,,,,,,,,,,,,,,,
BFA,Burkina Faso,BFAs004224,Mentao,PMH13 Mentao Nord,BFA-BFAs004224-007,Unknown,14.028795,-1.67389,,,,,,,,hand_pump,,,,,,,,,,,,,,,,,,,,,,,,,,,,,,,,
CAF,Central African Republic,CAFs004579,Zemio,PE A4,CAF-CAFs004579-007,Unknown,5.01941667,25.12302778,563,active,,,,9.85,7.15,hand_pump,India II,,,,,,3,,,,,,,,,1.98,20,,,,2.5,0.01,,,0.835,0.006,,,,,,
CMR,Cameroon,CMRs004007,Mbile,F2-1,CMR-CMRs004007-007,Unknown,4.32458333,14.83794444,642,active,23-7-2014,,,61,7.25,hand_pump,India Mark II,,,,N/A,,4.5,pvc,57,68.5,,,,,,3.04,10,,,,,,,,,,Borehole Log,Pumping test,-,-,,Forage UNHCR
CMR,Cameroon,CMRs004008,Borgop Site,P2,CMR-CMRs004008-007,Unknown,6.92641667,14.81661111,1238,active,,,,,,hand_pump,India Mark II,,,,,,4.5,pvc,,,,,,,,,7,10/10/2015,,,,,,,,,,,,,,UNHCR
CMR,Cameroon,CMRs004024,Timangolo,F5,CMR-CMRs004024-007,Unknown,4.61808389,14.54661667,719,active,,,,50,15,hand_pump,India Mark II,29,,,N/A,,4.5,pvc,30,50,,,,,,1.3,10,31-7-2014,149,7.2,8.7,,,,,,Borehole Log,Pumping test,Quality test,-,,Forage UNHCR
CMR,Cameroon,CMRs004028,Gado ,F18-G1,CMR-CMRs004028-007,Unknown,5.74784,14.43155,997,active,28-5-2015,,,72.5,7.25,hand_pump,India Mark II,27,,,,,4.5,pvc,,,,,,,,,10,17-11-2015,,,,,,,,,,,,,,UNHCR
CMR,Cameroon,CMRs004589,Minawao,F3,CMR-CMRs004589-007,Unknown,10.55275,13.86808333,585,active,23-3-2015,,,52,20,foot_pump,Vergnet,,,,,,5,pvc,21,33,,,,,fractured_rock,1.5,8,19-4-2015,100,7.35,,,,,,,,,,,,Forage UNHCR
CMR,Cameroon,CMRs005228,Ngam Site,F 7,CMR-CMRs005228-007,Unknown,6.73158333,14.57161111,,active,,,,,,hand_pump,India Mark II,,,,,,4.5,pvc,,,,,,,,,10,10/12/2015,,,,,,,,,,,,,,HCR
CMR,Cameroon,CMRs005229,Lolo,F12,CMR-CMRs005229-007,Unknown,4.27825,14.90944444,629,active,22-6-2014,,,42,6.58,hand_pump,India Mark II,,,,N/A,,4.5,pvc,33,,,,,,,1.512,10,,,,,,,,,,-,Pumping test,,-,,Forage UNHCR
CMR,Cameroon,,Adamoua,Batoua Godele (CSIP) F2,CMR--007,Unknown,6.322103,14.72295548,1089,active,20-6-2013,,,60,10.74,hand_pump,,24,,,,,5,pvc,21.5,27.4,33.3,39.2,45.1,51,porous,2,10,,,,,,,,,,,,,,,
COD,Democratic Republic of Congo,CODs002391,Mole,F5,COD-CODs002391-007,Unknown,4.12997222,18.80080556,390,active,5/2/2015,,,45.5,12,hand_pump,Hydro_Vergnet,30,,,,,4,pvc,,,,,,,fractured_rock,4.4,10,,,5.1,,,,,,,,,,,,
COD,Democratic Republic of Congo,CODs005128,Inke,F11,COD-CODs005128-007,Unknown,4.09838889,20.76713889,411,active,27-11-2013,,,55.22,6,hand_pump,INDIA Mark II,,,,,,5,pvc,55.26,63.81,,,,,fractured_rock,0.6,10,,,,,,,,,,,,,,,
COD,Democratic Republic of Congo,CODs005223,Boyabu,F11,COD-CODs005223-007,Unknown,3.73063889,18.76516667,369,active,10/8/2014,,,46.5,6.43,hand_pump,INDIA Mark II,,,,,,5,pvc,,,,,,,porous,2.9,10,10/12/2014,37.3,5.1,0.02,,,,,,,,,,,
DZA,Algeria,DZAs000021,Layoune,GL-01,DZA-DZAs000021-007,Unknown,27.73744722,-8.05107222,397.8,active,1/1/2002,,,95,14.8,electrical_pump," submersible pump (Grundfos 0,1-10/163-48)",68,5,grid,DEUTZ,60,9.5,steel,2.2,,,,,,porous,18.46,15.47,5/3/2015,1950,7.4,5,,5,2.17,72,0.34,,,,,,The same generator is used for the 3 Boreholes. It is automatically activated whenever there is  a break of the power grid.
ERI,Eritrea,ERIs002007,Umkulu,Borehole ID#3,ERI-ERIs002007-007,Unknown,15.60183,39.3994902,49,inactive,31-7-2013,,,26,,,,,,,,,,,,,,,,,,,,,,,,,,,,,,,,,,
ETH,Ethiopia,ETHs000162,PUGNIDO 1,BoreHole(BH05),ETH-ETHs000162-007,Unknown,7.646667,34.26581246,463,active,1/3/2013,,,125,24.9,electrical_pump,Submersible,84,15,generator,Perkins,50,8,pvc,,,,,,,,52.48,4.23,,,,,,,,,,,,,,,
ETH,Ethiopia,,Itang(Tierkidi & Kule),It-BH3,ETH--007,Unknown,8.187166,34.26328827,427.9,active,24-7-2014,,,50,5,electrical_pump,Submersible,41,15,generator,Perkins,88,6,pvc,,,,,,,,43.2,9,29-8-2014,114,6.5,,0.17,,0.52,0.78,,,,,,,
BFA,Burkina Faso,BFAs004224,Mentao,PMH4 Mentao Nord,BFA-BFAs004224-008,Unknown,14.028832,-1.673871,,,,,,,,hand_pump,,,,,,,,,,,,,,,,,,,,,,,,,,,,,,,,
KEN,Kenya,KENs001088,Dagahaley,DAG BH 1,KEN-KENs001088-007,Unknown,0.18777778,40.28638889,126,active,9/11/2010,,,180,113.24,electrical_pump,Grundfos SP46-20,157,30,generator,,,7.87,pvc,102,122,,,,,porous,55,9,,747,7.36,2.5,,,0.4,0.17,0.01,,,,,,
UGA,Uganda,UGAs990142,Kyangwali,Block 7,UGA-UGAs990142-007,Unknown,1.11679,30.4565,1168,active,18-6-2014,,,,,hand_pump,,,,,,,,,,,,,,,,1.49,,9/3/2015,,6.69,2.5,,,,,,,,,,,Functional 
KEN,Kenya,KENs001089,Hagadera,6,KEN-KENs001089-007,Unknown,0.00838889,40.37626111,122,active,24-9-2011,,,175,113.68,electrical_pump,Grundfos SP46-20,151,30,generator,,,7.87,pvc,100,154,,,,,porous,46,10.9,,1067,8.12,2.5,,,1.1,1,0.01,,,,,,
KEN,Kenya,KENs001091,IFO,6,KEN-KENs001091-007,Unknown,0.12083333,40.31361111,124,active,21-12-2014,,,167,113.3,electrical_pump,Grundfos SP46-20,138,30,generator,,,7.87,steel,92,134,,,,,porous,55,11,,838,7.12,2.5,,,0.56,1.2,0.01,,,,,,
KEN,Kenya,KENs001093,Kakuma,Borehole 5,KEN-KENs001093-007,Unknown,3.74833333,34.83235,591,active,1/1/1994,,,45,8.21,electrical_pump,SP 8A-15,18,2.2,generator,Perkins,20,4,,,,,,,,,12.9,,,,,,,,,,,,,,,,Kakuma 2 ZONE 2-Fuji tank. Anjellina Jolie and Moneau Shapel schools.
KEN,Kenya,KENs009177,IFO 2,A,KEN-KENs009177-007,Unknown,0.14069444,40.33597222,123,active,1/1/2010,,,191,108,electrical_pump,Grundfos SP60-19,,37,grid_generator,,,7.87,pvc,,,,,,,porous,55,10,,,,2.5,,,,,,,,,,,
KEN,Kenya,,Baraki,Baraki,KEN--007,Unknown,0.65672222,39.57961111,180,active,,,,,,,,,,,,,,,,,,,,,,,,,,,,,,,,,,,,,,
MLI,Mali,MLIs001121,Gao - Tintinboraguen,,MLI-MLIs001121-007,Unknown,16.18527778,-0.435,,active,15-10-2015,,,73.55,56.43,hand_pump,PMH India,60,,,N/A,,5,pvc,23,35,,,,,fractured_rock,6.55,5,12/3/2015,570,8.13,3,,,0.35,1.57,,,,,,,Rehabilitation UNHCR
TCD,Chad,TCDs003104,Dosseye,F15,TCD-TCDs003104-008,Unknown,8.16416667,16.48472222,,active,,,,,,hand_pump,Vergnet HPV60,,,,,,5,pvc,,,,,,,porous,,,,,,,,,,,,,,,,,
MLI,Mali,,Mopti - Massaya Daga,,MLI--007,Unknown,14.49922222,-4.20616667,,active,14-9-2014,,,40,0.9,hand_pump,PMH India,15,,,N/A,,5,pvc,29.24,38,,,,,fractured_rock,8,5,15-9-2014,133,7.18,3.9,0.5,0.01,,4.7,,,,,,,Construction UNHCR
MWI,Malawi,MWIs002625,Luwani,Sealed BH 4,MWI-MWIs002625-007,Unknown,-15.48116667,34.743975,,inactive,,,,,,,,,,,,,,,,,,,,,,,,,,,,,,,,,,,,,,
SSD,South Sudan,SSDs004118,Yida,007-BH-B6,SSD-SSDs004118-007,Unknown,10.11227,30.08165,416,active,15-12-2014,,,82,47.983,electrical_pump,Grundfos SP14A-18,57,7.5,grid_generator,"OLYMPIAN PERKIN ENGINE, ",22,4.5,pvc,69,78,,,,,,14.325,7.2,,,,,,,,,,,,,,,
SSD,South Sudan,SSDs004119,Doro,Bee,SSD-SSDs004119-007,Unknown,9.97727,33.75499,,active,,,,,25,electrical_pump,Grundfos SQ 5-70,,1.85,generator,,,4,pvc,,,,,,,fractured_rock,7,12,,,,2.5,,,,,,,,,,,
SSD,South Sudan,SSDs004461,Yusif Batil,PAE5,SSD-SSDs004461-007,Unknown,9.96058,33.58073,,active,2/6/2015,,,,23,electrical_pump,Grundfos SP 14A - 18,,5.5,grid_generator,,,5,pvc,,,,,,,fractured_rock,13,12,,,,2.5,,,,,,,,,,,
SSD,South Sudan,SSDs004467,Gendrassa,HP12,SSD-SSDs004467-007,Unknown,9.98733333,33.59641667,,active,,,,,23,hand_pump,India MarkII,,,,,,4,pvc,,,,,,,fractured_rock,2,12,,,,2.5,,,,,,,,,,,
TCD,Chad,TCDs002655,Farchana,F02,TCD-TCDs002655-007,Unknown,13.58197222,21.81997222,896,active,1/5/2004,,,35,10.39,electrical_pump,Grundfos SP14A18,23.1,7.5,generator,COELMO,40,5,pvc,23.3,31.8,,,,,fractured_rock,10.16,10,,100,6.7,2.5,,,,,,,,,,,
TCD,Chad,TCDs004478,Belom,F14,TCD-TCDs004478-007,Unknown,8.26842,18.45613,402,active,17-10-2012,,,46,5.4,hand_pump,Vergnet HPV60,29,,,,,5,pvc,33,46,,,,,porous,2.3,,,,,,,,,,,,,,,,
TCD,Chad,TCDs080005,Dar Es Salam,Bloc 5,TCD-TCDs080005-007,Unknown,13.61986111,14.30261111,,active,,,,25,17.98,hand_pump,India Mark II,20,,,,,,,,,,,,,porous,1.37,13,,276,7.93,2.5,,,,,,,,,,,
UGA,Uganda,UGAs001945,Nakivale,,UGA-UGAs001945-007,Unknown,0.83180556,30.88730556,1278,active,1/1/2010,,,100,,,,,,,,,6,pvc,,,,,,,porous,1.224,12,,,,,,,,,,,,,,,F  has high yield
UGA,Uganda,UGAs002378,Kiryandongo settlement,Dubai BH,UGA-UGAs002378-007,Unknown,1.92555556,32.15447222,1116,active,,,,,,hand_pump,U2,35.4,,,,,6,pvc,,,,,,,fractured_rock,11.67567568,12,,397,6.54,2.5,,,,,,,,,,,
UGA,Uganda,UGAs004630,Nyumanzi,Nyimanzi I 2/10,UGA-UGAs004630-007,Unknown,3.46525,31.94727778,642,active,6/3/2014,,,51,8.2,,,,,,,,,,,,,,,,,2,,,,,,,,,,,,,,,,
UGA,Uganda,UGAs004662,Ayilo 1,Deep borehole,UGA-UGAs004662-007,Unknown,3.28063889,31.92983333,740,active,4/12/2014,,,54,,hand_pump,U2,21,,,,,5,pvc,,,,,,,fractured_rock,1.5,12,,476,7.6,0.94,,,,0.4,0.008,,,,,,
UGA,Uganda,,Buliti B,Shallow Well,UGA--007,Unknown,0.35672222,31.07888889,,active,1/1/2007,,,4,2.11,hand_pump,India mark II,3,,,,,33,,,,,,,,,2,12,20-7-2015,49,5.5,82,,,,0.1,,,,,,,
CAF,Central African Republic,CAFs004579,Zemio,PE A2,CAF-CAFs004579-008,Unknown,5.02069444,25.12380556,541,active,,,,8.3,7,hand_pump,Vergnet,,,,,,3,,,,,,,,,0.8,20,,,,2.5,0.01,,,0.91,0.008,,,,,,Tarrissable
CMR,Cameroon,CMRs004007,Mbile,F3-6,CMR-CMRs004007-008,Unknown,4.32911111,14.84066667,653,active,26-11-2014,,,41,8.32,hand_pump,India Mark II,18,,,N/A,,4.5,pvc,28.2,39,,,,,,4,10,13-2-2015,32,5.58,,,,,0.3,,Borehole Log,Pumping test,Quality test,-,,Forage UNHCR
CMR,Cameroon,CMRs004008,Borgop Site,F 4,CMR-CMRs004008-008,Unknown,6.92816667,14.81777778,1257,active,,,,45,15.14,hand_pump,India Mark II,22,,,,,4.5,pvc,,,,,,,,,10,10/8/2015,,,,,,,,,,,,,,UNICEF
CMR,Cameroon,CMRs004024,Timangolo,F4,CMR-CMRs004024-008,Unknown,4.61996694,14.54751194,719,active,,,,50,19,hand_pump,India Mark II,25,,,N/A,,4.5,pvc,26,46,,,,,,1.3,10,17-7-2014,154,7.3,5.7,,,,,,Borehole Log,Pumping test,Quality test,-,,Forage UNHCR
CMR,Cameroon,CMRs004028,Gado ,F22-G1,CMR-CMRs004028-008,Unknown,5.74727,14.43329,995,active,16-7-2015,,,55,18.56,hand_pump,India Mark II,30,,,,,4.5,pvc,,,,,,,,,10,17-11-2015,,,,,,,,,,,,,,ECHO
CMR,Cameroon,CMRs004589,Minawao,F1 ,CMR-CMRs004589-008,Unknown,10.56008333,13.87145,588,active,22-3-2015,,,46,7.3,foot_pump,Vergnet,,,,,,5,pvc,20.4,32.4,,,,,fractured_rock,1.3,8,23-4-2015,120,7.56,,,,,,,,,,,,Forage UNHCR
CMR,Cameroon,CMRs005228,Ngam Site,F 11,CMR-CMRs005228-008,Unknown,6.72805556,14.57252778,,active,,,,,,hand_pump,India Mark II,,,,,,4.5,pvc,,,,,,,,,10,10/12/2015,,,,,,,,,,,,,,UNICEF
CMR,Cameroon,CMRs005229,Lolo,F8,CMR-CMRs005229-008,Unknown,4.27661111,14.91055556,619,active,4/3/2014,,,40,8.64,hand_pump,India Mark II,,,,N/A,,4.5,pvc,32,41,,,,,,6.912,10,,,,,,,,,,Borehole Log,Pumping test,,-,,Forage UNHCR
COD,Democratic Republic of Congo,CODs002391,Mole,F3,COD-CODs002391-008,Unknown,4.13619444,18.80266667,397,active,3/2/2015,,,31.95,9.1,hand_pump,Hydro_Vergnet,,,,,,4,pvc,,,,,,,fractured_rock,1.48,10,,,5.07,,,,,,,,,,,,
COD,Democratic Republic of Congo,CODs005128,Inke,F8,COD-CODs005128-008,Unknown,4.09494444,20.76758333,412,active,5/11/2013,,,59.2,5,hand_pump,INDIA Mark II,,,,,,5,pvc,55.2,63.75,,,,,fractured_rock,2.72,10,,,,,,,,,,,,,,,
COD,Democratic Republic of Congo,CODs005223,Boyabu,F14,COD-CODs005223-008,Unknown,3.73544444,18.76516667,374,active,24-9-2014,,,49,4.2,hand_pump,INDIA Mark II,,,,,,5,pvc,,,,,,,porous,3.5,10,10/12/2014,41.8,5.9,0.2,,,,,,,,,,,
DZA,Algeria,DZAs000021,Layoune,GL-03,DZA-DZAs000021-008,Unknown,27.73732778,-8.05860556,396.15,active,1/1/2010,,,95,14,electrical_pump, submersible pump (PRAMAC),80,4.5,grid,DEUTZ,60,9.5,steel,,,,,,,porous,8.63,12,5/3/2015,1890,7.4,5,,,1.7,75,0.34,,,,,,
ETH,Ethiopia,,Itang(Tierkidi & Kule),It-BH2,ETH--008,Unknown,8.187787,34.26435218,428.1,active,16-7-2014,,,55,4.5,electrical_pump,Submersible,46,15,generator,Perkins,80,6,pvc,,,,,,,,39.6,9,27-8-2014,133,6.7,,0.11,,0.57,0.03,,,,,,,
KEN,Kenya,KENs001089,Hagdera,Hagdera,KEN-KENs001089-008,Unknown,0.00344444,40.37272222,120,active,,,,,,,,,,,,,,,,,,,,,,,,,,,,,,,,,,,,,,
KEN,Kenya,KENs001093,Kakuma,Borehole 6-old,KEN-KENs001093-008,Unknown,3.76201667,34.83418333,598,active,1/1/2012,,,30,,electrical_pump,,,,,,,8,,,,,,,,,,,,,,,,,,,,,,,,,Not functional. Replaced.
KEN,Kenya,,Dadajibula,Dadajibula,KEN--008,Unknown,0.54025,40.87322222,90,active,,,,,,,,,,,,,,,,,,,,,,,,,,,,,,,,,,,,,,
KEN,Kenya,,Fafi,Fafi,KEN--013,Unknown,0.39058333,40.32352778,150,active,,,,,,,,,,,,,,,,,,,,,,,,,,,,,,,,,,,,,,
